location_id,address_1,address_2,city,state,zip,county,country,location_source_value,latitude,longitude
1,490 Brekke Highlands Apt 47,,Arlington,,2476,Middlesex County,FI,0004bbbd-1e41-42b0-bd6e-fece53cc1817,42.4317771562749,-71.1304290836975
2,829 McGlynn Pathway,,Rowe,,,Franklin County,FI,00068c8a-52cc-4ad3-9598-f2e192368271,42.7320427050148,-72.9374865356389
3,843 Shields Dam Suite 85,,Montague,,,Franklin County,FI,001a793d-05f1-40e8-a964-28b365e5028c,42.5080649051459,-72.5323754691953
4,1041 Huels Neck,,Oxford,,1540,Worcester County,FI,0021e743-08c6-43b8-9192-5c6a643c6cd1,42.1524242924566,-71.9005840213922
5,974 Johnson Gate,,Bellingham,,2019,Norfolk County,FI,00280e88-3062-4aea-8076-ad740aa86b77,42.1191421290481,-71.4627685757508
6,525 Glover Knoll Apt 17,,Newton,,2465,Middlesex County,FI,002ca0f4-3f61-4584-b3ab-93f4d8573fb3,42.3587347641988,-71.1471752131108
7,789 Fay Boulevard Suite 24,,Savoy,,,Berkshire County,FI,002e30ad-ee1a-418e-aac9-73e47bd7d102,42.5750365513945,-73.0351322022467
8,256 Jerde Promenade Suite 56,,Springfield,,1129,Hampden County,FI,00437aef-0732-4dc2-b596-0497c96816bc,42.1804992054608,-72.524357720772
9,692 Hudson Trailer Apt 17,,Haverhill,,1832,Essex County,FI,0046bbce-9f1f-4277-904f-6a9fa7c220e2,42.7337814530392,-71.123403900793
10,514 Rohan Estate Apt 1,,Framingham,,1702,Middlesex County,FI,00482ef9-c87d-4d85-a658-488e379bccd2,42.3187920809458,-71.4269532374825
11,195 Kirlin Forge Suite 15,,Boston,,2120,Suffolk County,FI,004a3916-e350-42fa-8da9-2ae72c5bdae0,42.4361332039146,-71.0504579715
12,317 Murazik Meadow Suite 38,,Boston,,2110,Suffolk County,FI,004c5902-4689-404b-be64-e78adb2fa3be,42.2975704417018,-71.1369970168044
13,216 Gusikowski Run,,Winchester,,1890,Middlesex County,FI,004e3801-d1da-44fd-b553-2bb4e261c1da,42.4598739338839,-71.1911417465975
14,896 Ondricka Vista Suite 24,,Dedham,,2026,Norfolk County,FI,0050f584-c25c-4349-80a2-0d071cde06ad,42.2271230489801,-71.1296542309722
15,795 Stracke Trace,,Sharon,,,Norfolk County,FI,00561b6d-9892-4e8c-a4b6-372231677850,42.0597695695807,-71.1487374920896
16,872 Medhurst Junction Suite 64,,Newbury,,,Essex County,FI,00582462-db5b-4ef2-8d87-b648a5ff49e2,42.7496113297929,-70.8305846984252
17,690 Kunde Track,,Dudley,,,Worcester County,FI,005a9370-a51a-4e2b-b639-67150db46805,42.0047432586818,-71.9303052554704
18,245 Mayer Walk,,Brockton,,2351,Plymouth County,FI,00638284-b51c-429e-82b0-03fca8edfd3f,42.0550934056212,-71.0297205083402
19,343 Heidenreich Heights,,Lowell,,1852,Middlesex County,FI,0067fd5c-11af-419e-9fc8-4d842aa1e5aa,42.5810692028195,-71.3370503673866
20,619 Nicolas Skyway Unit 77,,Worcester,,1606,Worcester County,FI,00698afc-1b57-4653-93b9-ddd13b17be63,42.3086836290381,-71.7625756457638
21,940 Schneider Alley,,Methuen,,1844,Essex County,FI,0075777f-6bf7-42b7-9729-6bc8102e00f1,42.7814159264749,-71.1608054551999
22,285 Ernser Bypass,,Medford,,2155,Middlesex County,FI,007a3155-512b-412f-aa25-d620b76af715,42.450842219499,-71.0865790045086
23,925 Mueller Glen Suite 45,,Woburn,,1890,Middlesex County,FI,007ea8b1-ee56-4713-bd73-66d1d313d2f8,42.5009887432668,-71.1598624720698
24,601 Greenfelder Loaf Suite 41,,Dighton,,,Bristol County,FI,0088d7a5-aa87-4190-87f4-93e7820d413c,41.8081097949626,-71.143385361618
25,969 McDermott Bridge Apt 98,,Sudbury,,,Middlesex County,FI,008a0e34-b82b-4271-b9fe-6b32d1ec6856,42.3412473147961,-71.4519693266984
26,373 Christiansen Plaza,,Arlington,,,Middlesex County,FI,008b4bfd-d9dd-4744-9f8d-ed937db921f0,42.4666077283176,-71.1767072907245
27,445 Wiza Road Unit 81,,Hamilton,,,Essex County,FI,008bd0d2-8134-441d-ada7-7c4804fe2f36,42.653523973023,-70.8168715228283
28,703 Bashirian Ferry Unit 98,,Reading,,1867,Middlesex County,FI,008c6098-faa6-4353-b75d-3d3913c95dfb,42.4554256415091,-71.1289608716881
29,436 Yundt Center Suite 76,,Holden,,,Worcester County,FI,008ec985-b7aa-4a4d-8e1f-03cf4f46c482,42.3115608396377,-71.8891341688163
30,1058 Spinka Viaduct,,Salem,,1970,Essex County,FI,0092041d-160b-4e68-95e2-b4a0b128d3c3,42.497218080837,-70.8688297971514
31,101 Schaefer Stravenue,,Lynn,,1906,Essex County,FI,0093a5ad-6332-4c75-b9d1-2a0cb3079104,42.4594510898182,-70.9967776630577
32,489 Pfannerstill Village Apt 17,,Lawrence,,1843,Essex County,FI,009b44c5-a581-414f-a878-b54d0e8ef0ca,42.6773888600369,-71.1890995598131
33,169 Collins Wall,,Leominster,,,Worcester County,FI,009c4266-d3cd-46d9-9dd3-92b969ee1729,42.6308593290304,-71.770051385878
34,646 Boyle Hollow Apt 92,,Shrewsbury,,,Worcester County,FI,00a27882-7e8e-4635-975d-ae763a2529cc,42.3196238667364,-71.7068868228035
35,457 Streich Rapid,,Salem,,1907,Essex County,FI,00ac16bf-26d9-4669-b073-100a69d07069,42.4248397842265,-70.8960411328409
36,993 Stracke Alley Unit 58,,Marshfield,,2050,Plymouth County,FI,00affff9-80db-4807-9640-f9477794d9da,42.1103845294766,-70.7163623954139
37,246 Mann Gateway,,Melrose,,,Middlesex County,FI,00b7e6b2-a499-4ee6-be22-d27f44476920,42.4816408964031,-71.0237464755928
38,937 Heller Mews,,Dover,,2030,Norfolk County,FI,00bdab6f-2559-4448-8c86-d2d1097dd9e6,42.2095875308522,-71.3388594826264
39,230 Kub Track Apt 99,,Boston,,2119,Suffolk County,FI,00c2b9a2-8948-4b41-8f7c-80bda18ec1a8,42.343964115951,-70.9687047558497
40,847 Cartwright Village Suite 3,,Longmeadow,,,Hampden County,FI,00c359a0-bbe3-425b-b143-0e72c36872c1,42.0447623317113,-72.6074491704567
41,368 Schamberger Overpass Suite 59,,Boston,,2163,Suffolk County,FI,00c7e1ae-ee8d-48d2-9592-177da929f7a2,42.3207894515997,-71.0775177611246
42,652 Mayert Way Unit 57,,West Springfield,,1089,Hampden County,FI,00c8a2a2-5ceb-4185-94c5-18aa4a97d9bb,42.0973388619431,-72.6841546262668
43,627 Oberbrunner Forge Apt 41,,Longmeadow,,,Hampden County,FI,00d46c99-5da1-4dbc-8760-99b44e545721,42.0525791917351,-72.5824858768265
44,111 Doyle Ville Unit 96,,Barnstable,,2647,Barnstable County,FI,00e6cb49-d011-4c8e-81de-c20bd5fd0178,41.6213212560786,-70.4395039405295
45,912 Wehner Crossing,,Seekonk,,,Bristol County,FI,00e73ce3-01d2-496a-b499-181f33823f52,41.7899498013297,-71.2977179277142
46,761 Reichert Loaf Unit 56,,Brookline,,2215,Norfolk County,FI,00ea7659-98b9-4e73-abb1-65275a17817d,42.3442231647581,-71.1007742890801
47,839 Willms Park,,Lexington,,,Middlesex County,FI,00f54b56-f142-475d-9632-88c00d6da142,42.4359827404809,-71.2195041640733
48,881 Howe Rest,,Ayer,,1434,Middlesex County,FI,00fd63bd-f5de-4320-a61f-7756e587869e,42.582031440368,-71.5479951261831
49,295 Stamm Drive,,Granby,,,Hampshire County,FI,00ffef11-5f07-4176-bf0f-26bfad2b5fb3,42.2185052729649,-72.4612723479129
50,458 Weimann Ferry,,Hampden,,,Hampden County,FI,01065624-e8b3-4c3d-8524-7c82c80e8fdb,42.0237234070263,-72.4403060971389
51,779 Rogahn Promenade Unit 0,,Brookline,,,Norfolk County,FI,01080838-932c-4f75-97a0-1ecf2abad7c0,42.3577631068286,-71.1417100834987
52,478 Cremin Brook,,Everett,,2148,Middlesex County,FI,011be93c-0cb0-466e-a7ea-3475f96ac315,42.4459027574031,-71.0155881558591
53,1042 Collins Dale,,Brockton,,2302,Plymouth County,FI,011cf38b-b41a-4f85-8df1-3a95788846c8,42.0827280743494,-70.9799896504115
54,933 Gislason Frontage road Unit 49,,Boston,,2210,Suffolk County,FI,011e2f8f-f149-4bfe-9213-31f98d778621,42.3077401748965,-71.0576955289951
55,541 Pollich Road,,Billerica,,,Middlesex County,FI,011eeb6a-a1df-4acb-a483-d142da075cc4,42.5203579269659,-71.2859101382935
56,549 Green Throughway,,Springfield,,1119,Hampden County,FI,0122267a-b469-4e1e-ab1c-adfa66203c90,42.1048654143755,-72.5459738884044
57,234 Thiel Skyway Unit 4,,Medford,,,Middlesex County,FI,0128dffd-5040-4fc6-bf2c-0c8b8c9de604,42.4675372230763,-71.1372673172968
58,694 Feil Route Unit 64,,Gardner,,1440,Worcester County,FI,012c7528-6000-4832-88a7-2e3dcc2108b6,42.558571970641,-71.980445605617
59,218 Kuvalis Well Unit 56,,Salisbury,,,Essex County,FI,012ca563-8424-445e-95e7-4399cf862972,42.8327428010914,-70.8036874090887
60,437 Kreiger Trafficway Apt 10,,Easthampton,,1027,Hampshire County,FI,0132cc00-efda-409d-9a60-0755225e7166,42.2607035233005,-72.737583791026
61,1000 Runolfsson Glen Apt 25,,Plymouth,,,Plymouth County,FI,0135be7b-75f5-41fe-ac34-84296999bdda,41.9059140401551,-70.6650630681855
62,397 Cruickshank Crossroad Apt 25,,Haverhill,,1835,Essex County,FI,01399e32-4fe7-4c9e-aae2-4954ab7f59dc,42.8191518104532,-71.0990584568938
63,399 Ryan Divide,,Stow,,,Middlesex County,FI,013e3bb6-ba45-4dc2-96b2-3b41ea0580be,42.4550626815474,-71.4860929598015
64,746 Kshlerin Haven,,Barnstable,,2673,Barnstable County,FI,014dcfed-b387-4bbb-b0c2-9deaf9cdfcf7,41.6923250929718,-70.3357957209497
65,554 Spencer Arcade,,Gardner,,,Worcester County,FI,014debfe-e92d-4601-86c4-89ab8fff75ac,42.6247534053378,-71.9896492951034
66,272 Shanahan Vista Unit 34,,Hanover,,,Plymouth County,FI,014f1174-b675-4a77-b4e0-37204f9f0b84,42.1513928658875,-70.8106754885881
67,944 Armstrong Meadow,,Boston,,2152,Suffolk County,FI,01507140-8e50-4936-8a0f-6cc56199ac63,42.3421822701209,-71.0733313913272
68,631 Auer Village,,Dudley,,,Worcester County,FI,015aaceb-2079-4f2f-a9ae-d354d21512e7,42.0173977635378,-71.9341327890898
69,1081 Williamson Bridge,,Marblehead,,,Essex County,FI,015b7c29-9932-43ba-9c6e-a403e9cd0d52,42.500657916079,-70.8773928759946
70,740 Huels Annex Suite 18,,Salisbury,,,Essex County,FI,015de389-d274-4a6c-bfbf-fafc99a93365,42.8661282526297,-70.824508593307
71,226 Hackett Burg Suite 25,,Milton,,,Norfolk County,FI,0167d4d8-d639-427d-b7e0-6543676f0344,42.2757764297169,-71.0810858120709
72,764 Mann Passage,,North Andover,,,Essex County,FI,016a47dc-f803-4246-829c-a73ccfd95507,42.6301795383656,-71.123220655547
73,746 Collins Fort Unit 67,,Somerset,,2726,Bristol County,FI,01719cd3-b3e4-4e98-ae5c-328ab7c92115,41.7901219132161,-71.1128265225852
74,252 Kling Divide Unit 94,,Haverhill,,1832,Essex County,FI,0171afdd-c4b8-4e8d-830c-26f33fef308f,42.7973008412408,-71.0373858842338
75,415 Rau Track Unit 89,,Lynn,,1901,Essex County,FI,0175fbd7-4013-4a0e-b5b7-364e30aa6d16,42.5791813984139,-70.9961302898862
76,598 Borer Passage,,Boston,,2163,Suffolk County,FI,017c5278-ae74-4d25-903b-f555eb4bf729,42.3311991753653,-71.0696306791963
77,243 Ebert Wynd,,Boston,,2125,Suffolk County,FI,017e94fe-edb5-4ba2-bd73-93618a6ff2ea,42.3036350423327,-71.0321433710307
78,335 Wolff Green,,Yarmouth,,,Barnstable County,FI,0182e18a-9c9b-463e-a31c-ef270f35fb19,41.6519651959914,-70.1773147051051
79,423 Kozey Spur,,Braintree,,2184,Norfolk County,FI,0183a626-1e86-4de1-9a30-4137a3c7f5b3,42.2119336827893,-71.037375917495
80,644 Schamberger Plaza Apt 68,,Harwich,,,Barnstable County,FI,0197da35-d418-45a3-bb2a-de3de6e5ca83,41.7263829085994,-70.0842997317431
81,222 Nienow Frontage road Suite 39,,Fall River,,,Bristol County,FI,0198cf2f-fd4a-4739-bed6-716259bf1479,41.697180697651,-71.0964513079829
82,552 Funk Terrace,,Falmouth,,,Barnstable County,FI,019963d7-cc7a-4439-9934-eb389b524439,41.6239914267922,-70.6234230294055
83,856 McDermott Green Unit 95,,Hull,,,Plymouth County,FI,019cb1b9-b59d-4378-b8e5-cd82e126ae7a,42.3539217399271,-70.9111298131767
84,484 Thompson Annex,,Lexington,,2421,Middlesex County,FI,01a30747-b788-40f7-902c-be8001e7f14b,42.4728986312709,-71.2831975146551
85,205 Beatty Mall Apt 40,,Walpole,,2081,Norfolk County,FI,01a33b9e-1570-4806-92f8-ede013972147,42.103513015244,-71.2644419385084
86,496 Purdy Avenue,,North Attleborough,,,Bristol County,FI,01a42292-03b1-473f-8781-5549de2be93c,41.9380354373118,-71.3167120431498
87,783 Turcotte Burg Apt 51,,Arlington,,2476,Middlesex County,FI,01ab0df3-9ff4-481c-82f4-b7cc3806496c,42.4224317118927,-71.1363970800523
88,155 Prohaska Gateway,,Lynnfield,,,Essex County,FI,01aee8d2-fa8f-41e2-93e7-fdf735623ac9,42.5631356443505,-71.0470014736594
89,1031 Nicolas Rest,,Lynn,,1940,Essex County,FI,01b77d4c-4924-402c-b258-ca3f8aff6c36,42.4356627860283,-70.9802341866042
90,853 Heller Village Apt 29,,Waltham,,2453,Middlesex County,FI,01bf1657-8dd2-4685-be6e-fc8dbc49d794,42.3390684846251,-71.2017024914762
91,852 Pacocha Street Suite 13,,Boston,,2116,Suffolk County,FI,01c03bc9-f751-4499-bb33-8c22f13653fe,42.2720311635264,-71.1589881810952
92,107 Carter Approach Unit 13,,Holbrook,,2343,Norfolk County,FI,01c09c64-f86f-4fda-ba4f-3fd8c27304d1,42.1545271622556,-70.9652855633088
93,613 Medhurst Parade Apt 40,,Fairhaven,,,Bristol County,FI,01c24303-b1ec-45e6-aac5-f9bcb19feb5e,41.6136515187418,-70.8710800121234
94,139 Roberts Crossing Unit 98,,Carver,,,Plymouth County,FI,01c48a1a-6db4-4f6e-844b-17e658942c69,41.8506230731396,-70.754604652014
95,898 Langosh Hollow Suite 3,,Boston,,2108,Suffolk County,FI,01c666e1-0db3-4707-ad4f-7cf970965413,42.3681288714342,-71.0921519574216
96,652 Gislason View Suite 10,,Wayland,,,Middlesex County,FI,01ccbbbe-7ba4-4e0d-85c2-8541ea31b3c6,42.3564409245398,-71.3786099021651
97,886 Shanahan Overpass,,Needham,,,Norfolk County,FI,01d880d8-f755-4a19-b10c-16c04568bdb3,42.298826380812,-71.225173137975
98,530 Parker Frontage road,,Manchester-by-the-Sea,,,Essex County,FI,01f4fcd4-dc22-4873-af68-eba5eebe7aee,42.5176347614509,-70.7506812132807
99,985 Corwin Annex Apt 32,,New Bedford,,2743,Bristol County,FI,01fcfadd-2bab-403a-81a9-f8fdd14e3c57,41.6420318889609,-70.9795150261021
100,581 Kihn Alley,,Fall River,,2724,Bristol County,FI,02011243-d60a-4680-9dc9-449851f057ee,41.6615725261006,-71.1427971975549
101,1017 Mraz Flat,,Boston,,2136,Suffolk County,FI,0201afe6-20eb-41f4-800d-dba4d1de0122,42.3231103859844,-71.054621931412
102,305 Predovic Bay Apt 85,,Salem,,1907,Essex County,FI,0207547d-bb06-4d90-8157-122cb39f8ae8,42.4928031069557,-70.9083587565339
103,330 Spencer Knoll Suite 67,,Lawrence,,1843,Essex County,FI,02082497-bb41-4875-88aa-40c13df61231,42.7353668343817,-71.2002499353316
104,725 Rolfson Village,,Salem,,1907,Essex County,FI,021062d0-8ce6-4506-b736-98571470aabb,42.4536230764167,-70.9330035501007
105,477 Larson Ferry Suite 92,,West Boylston,,,Worcester County,FI,0210c0f8-8d4e-41bc-a179-5c5c9547cb2d,42.386427787954,-71.7862128702858
106,945 Mills Extension Apt 37,,Worcester,,1605,Worcester County,FI,02115d04-1924-4c2b-9603-f76d8f7a9be3,42.2551277878029,-71.7625914154023
107,432 Walker Underpass Apt 74,,Arlington,,2476,Middlesex County,FI,0216bfa4-35cc-429a-b9c3-ad899fc3137d,42.4629540205784,-71.2224836374757
108,379 Shanahan Glen,,Fitchburg,,1420,Worcester County,FI,02197c87-d3b1-4af6-8efa-056837c2ba97,42.6193708866091,-71.8502373742943
109,305 Walter Byway Apt 46,,Weymouth,,2188,Norfolk County,FI,021bd81d-fde1-4608-8d29-62eb98f6d21c,42.2851443778979,-70.9804892213049
110,869 Morissette Vista,,Lynn,,1907,Essex County,FI,0229ba64-ae2b-4c87-a012-ede3d789686f,42.5296027106127,-70.9363627315401
111,259 Lesch Throughway,,Stoneham,,2180,Middlesex County,FI,022c02c9-6bc8-45b5-bb4a-2f20bfa55b11,42.4767138067648,-71.0950179409029
112,557 Graham Terrace,,Lynn,,,Essex County,FI,022ce9c5-a43f-4f38-bb22-79e97433b5b5,42.5031447653395,-71.0465874851324
113,403 Hudson Fort,,Winchendon,,,Worcester County,FI,0234a3c7-e6eb-4e9c-950a-7fabbed5ed2f,42.7113925388354,-72.0368143799652
114,690 Rohan Course Apt 17,,Hanover,,,Plymouth County,FI,023d2148-1cfb-40e4-a998-7975f2408cff,42.0990616861183,-70.8775100851761
115,449 Pollich Wall,,Pittsfield,,1201,Berkshire County,FI,0246424b-fc50-470a-b6f9-f5aa4668a9b2,42.4257789700303,-73.2747468637119
116,781 Bauch Course,,Easthampton,,,Hampshire County,FI,024c3c33-4dcb-46b7-8c0f-07c440735c57,42.2637228995366,-72.6795176094038
117,422 Kuhlman Center,,Gill,,,Franklin County,FI,024c900a-ca24-40d2-b4e4-000fe3b30a31,42.649906293114,-72.4794339297268
118,899 Harris Light Unit 26,,Billerica,,,Middlesex County,FI,02578c68-052f-40a4-b016-645a7a06256c,42.5630706925325,-71.220333880431
119,501 Deckow Burg Suite 87,,Brookline,,2446,Norfolk County,FI,025c06a7-90d6-44a3-b5b5-3a71d5e004b7,42.348441480382,-71.1737765482057
120,315 Heathcote Alley,,Walpole,,2081,Norfolk County,FI,025f79ca-0a85-4d9d-8907-888d4d6eee33,42.1868862786952,-71.281894039628
121,354 Pfannerstill Loaf Suite 9,,Somerville,,2155,Middlesex County,FI,0260bae9-75c5-48aa-8382-a942c58ba122,42.4263499533237,-71.080993539735
122,266 Frami Byway,,Berkley,,,Bristol County,FI,02681356-ea6c-47af-8ec4-efa2f44cf7f0,41.8419205658099,-71.1148657060065
123,430 Watsica Frontage road Unit 96,,Mansfield,,,Bristol County,FI,0274aa10-b215-4668-a6b0-3a3932827837,41.9729403944585,-71.2659596816283
124,357 Thiel Arcade,,Gloucester,,,Essex County,FI,027ed264-f250-48ad-a357-0af590c7507a,42.6078628192792,-70.6946964877882
125,706 Nikolaus Branch Unit 53,,Westwood,,,Norfolk County,FI,028b9112-f5bb-475f-a6d9-ebfface9dc24,42.2274023760701,-71.2103833932714
126,716 Hoppe Port,,Framingham,,,Middlesex County,FI,02917b44-f9f3-4d6d-a365-45a3bd27c6fe,42.3576553042819,-71.4140232246894
127,972 Towne Orchard,,Framingham,,1702,Middlesex County,FI,029582be-53b7-4ce5-ab77-c8d1b87f0c30,42.3316655587757,-71.4484257794819
128,725 Mueller Bridge,,Chicopee,,,Hampden County,FI,0298d4e6-f30c-4275-8319-e1f2dd692bae,42.1682283965786,-72.5185551402532
129,837 Fahey Vale,,Boston,,2132,Suffolk County,FI,029cdb7d-d30f-475f-9f21-f17eb3eca09a,42.3725633303889,-71.0301315973603
130,468 Marquardt Harbor Suite 67,,North Attleborough,,,Bristol County,FI,029f6cab-f3b1-4e4a-a1de-acb655a94b2d,41.949904120706,-71.2862174724956
131,477 Cartwright Common,,Lawrence,,,Essex County,FI,02a40b4d-34df-42b7-a443-f70aad21b415,42.6829438403211,-71.1760778712043
132,835 Hudson Landing,,New Bedford,,2743,Bristol County,FI,02ac59b6-eb54-4da3-be75-5a3d9e09e015,41.5627351020404,-70.9679437166172
133,542 Cummerata Park Suite 12,,Somerset,,,Bristol County,FI,02b0395c-cfb6-4c05-a4aa-26c0dfa14315,41.7211013914406,-71.2346636249441
134,400 Kuhlman Junction Unit 11,,Weston,,,Middlesex County,FI,02b10510-9bb2-48f6-b97d-f877854dbfa3,42.4093640027082,-71.2884472648008
135,417 Harris Gateway Apt 81,,Danvers,,1923,Essex County,FI,02bb2a5e-52fb-4c42-a24c-03a253fb0ef0,42.5967741627276,-70.9597656226635
136,451 Strosin Parade Apt 33,,Lynn,,1904,Essex County,FI,02c8bfd7-62b0-478e-91dd-9a3178971c95,42.4398642150103,-70.9378776995828
137,787 Von Approach Apt 28,,Richmond,,,Berkshire County,FI,02da2e58-c201-4c08-8f13-b4ec748a4d8a,42.3775642118619,-73.3667967296149
138,175 Schuster Meadow Suite 58,,Boston,,2118,Suffolk County,FI,02dd6765-b1b8-4f44-8c01-c306eb0cc614,42.3873236013267,-71.0457454471305
139,343 Dickens Gateway,,Waltham,,2451,Middlesex County,FI,02e1b82d-f4a3-4fed-8acf-a97723df53a7,42.3743691361972,-71.2699475618806
140,629 Zieme Frontage road Apt 89,,Lawrence,,1843,Essex County,FI,02e63fdc-4502-475f-97da-74e0e7c1f634,42.6886781864226,-71.2072001891462
141,179 Barrows Lock,,Easton,,,Bristol County,FI,02e97551-6586-499b-b54d-a3f7898fc5b3,42.0691316366164,-71.1455120519632
142,377 Pollich Run,,Fairhaven,,,Bristol County,FI,02f28127-af4c-45b0-8671-9fb1fe17f7af,41.6122963520559,-70.8514425706277
143,776 Friesen Alley,,Southwick,,,Hampden County,FI,02fa6b4d-ca32-4677-ae95-b006932d045d,42.0166776583185,-72.8059320120434
144,236 Harvey Pathway Unit 74,,Boston,,2136,Suffolk County,FI,02fe2123-2a87-4171-9c7d-c51e6381b631,42.2829677486571,-71.0531869800205
145,582 Thiel Mall,,Acton,,,Middlesex County,FI,03088352-01c7-4bb5-aa1b-7644f08ecd1f,42.4572445176394,-71.460245428517
146,588 Walsh Underpass Suite 12,,Andover,,1810,Essex County,FI,030904c4-42e2-468e-b5e2-e277a0b22244,42.6561363764007,-71.1409278194416
147,528 Ward Highlands,,Everett,,2149,Middlesex County,FI,030d6174-9c33-42ec-9294-094068167b3f,42.3759964673536,-71.0985767424055
148,557 Jenkins Drive,,Yarmouth,,,Barnstable County,FI,030d8921-9651-4871-a973-f2f0010cc2f9,41.7244906419186,-70.1790246622653
149,908 Hahn Haven Suite 84,,Boston,,2163,Suffolk County,FI,0317b9dd-fd54-4146-8be2-bf1449fda641,42.324239175747,-71.0465961075798
150,1023 Ondricka Junction,,Malden,,2148,Middlesex County,FI,031d042e-aa82-4163-8a0f-86d8e7f3a518,42.3833067800505,-71.0685493484307
151,118 Franecki Union Unit 92,,Lawrence,,,Essex County,FI,03240165-722b-4218-8a02-0ef9f703a157,42.7389656644486,-71.1116219305905
152,684 Hudson Rue,,Boston,,2115,Suffolk County,FI,0332eee9-9cd4-48ee-8837-d1539590bd9e,42.404937123447,-71.0670160693841
153,293 Mohr Bypass Suite 77,,Monson,,,Hampden County,FI,0333788a-0fae-4ff5-872a-42157c633b3a,42.0784154562384,-72.3033576748828
154,698 Ziemann Common Apt 36,,Lowell,,,Middlesex County,FI,033a20cc-96e7-4f7e-802e-ded9ce2811ce,42.6421875200989,-71.386600869077
155,981 Runolfsdottir Annex,,Littleton,,,Middlesex County,FI,03475adf-ed9d-4807-9370-9109aa0a7283,42.5561188711269,-71.5229500793614
156,906 Hyatt Center Suite 86,,Leverett,,,Franklin County,FI,034a858f-071a-4822-9b1f-e4eb84aab322,42.4450282582489,-72.4737473488911
157,702 Ritchie Esplanade,,Woburn,,,Middlesex County,FI,03539d99-fbf1-4604-bde7-3d5fa8e575fb,42.5088112558899,-71.1188875685349
158,781 Corwin Row,,Stoughton,,,Norfolk County,FI,0356bc84-f6f2-4397-9002-d04fa3a858a7,42.1316755160693,-71.1164602590625
159,908 Bashirian Flat Apt 92,,Boston,,2108,Suffolk County,FI,035dc104-e9bf-43b5-a0f5-e38662aa3d10,42.2535176256663,-71.0226947786836
160,137 Sauer Crossroad,,Pittsfield,,,Berkshire County,FI,035e41f0-a1ad-456d-9cda-a237e6df557d,42.4335948932415,-73.276994912453
161,1034 Halvorson Terrace,,Brockton,,2351,Plymouth County,FI,03684d85-7f35-4e00-a61b-22c3d467cf8f,42.059974042538,-71.0332522566824
162,231 Ondricka Union Unit 74,,Everett,,2149,Middlesex County,FI,036b7252-df32-43b8-a51f-8ce328ca804d,42.4441437715986,-71.0563849127989
163,255 Schroeder Annex Apt 81,,Everett,,2148,Middlesex County,FI,036d461e-9351-488f-9404-a9b8d792f1ab,42.3906468677469,-71.0893273589274
164,449 Ritchie Extension,,Brockton,,,Plymouth County,FI,0376660e-1c30-4ed3-ad13-2d0a59a804ad,42.0746978405783,-71.0579809596485
165,1056 Conroy Bypass Unit 14,,Sudbury,,,Middlesex County,FI,0382f3a6-e2ae-49f1-8549-b959cdbe53ef,42.38975693806,-71.396002186227
166,543 Bernhard Mission,,Spencer,,1562,Worcester County,FI,03834db3-17ac-409e-9b10-b027b1d1772a,42.2906545828047,-72.0014519556947
167,284 Schaden Manor Apt 15,,Hubbardston,,,Worcester County,FI,0395b0d7-adac-4fa0-9fc3-030f3ba5a584,42.5248508187387,-72.0478695055737
168,827 Ritchie Street,,Newton,,2466,Middlesex County,FI,0398ca8c-904d-49c9-933a-5ab5b425381d,42.374791166324,-71.2236285052848
169,565 Crist Skyway Unit 87,,Worcester,,1602,Worcester County,FI,039cac5e-e211-40eb-a1b0-9bf7a311c520,42.2173896823895,-71.7762647035802
170,529 Weber Vale Apt 39,,Quincy,,,Norfolk County,FI,03a101d8-032a-4fd0-88c4-82853e34dcee,42.2647329062464,-71.0412359706157
171,152 Jacobs Junction,,Andover,,,Essex County,FI,03a2885a-aebd-482a-af9d-ce8086cf3395,42.6654832145486,-71.1462253260159
172,212 Hackett Trailer,,Ipswich,,,Essex County,FI,03a42694-e8ab-4aa2-ac6d-26b5e850e276,42.7100489145555,-70.7901581244993
173,1004 Hansen Arcade Unit 78,,Worcester,,1609,Worcester County,FI,03a4962e-bd32-4d2e-aba6-56b3c4e10a58,42.2247726777072,-71.8348258854951
174,715 Cummerata Approach,,Worcester,,1610,Worcester County,FI,03aca5e4-e3dd-4733-9ea3-e22c934e2377,42.2510277899905,-71.8026494050778
175,379 Windler Club Apt 76,,Williamsburg,,,Hampshire County,FI,03b17a47-dc95-4a03-a0aa-92efa28a8c2f,42.3659000152288,-72.7564360760007
176,267 Parker Meadow,,Boston,,2135,Suffolk County,FI,03b5e788-18c2-4198-b7ba-849309809f52,42.3713821326044,-71.0256769400735
177,503 Rowe Trailer,,Southwick,,,Hampden County,FI,03b748be-d43a-4b82-bc84-351db8cefeb7,42.0115371662719,-72.7565508987943
178,287 Walsh Arcade,,Weymouth,,2191,Norfolk County,FI,03bc7529-e0dc-404d-86f2-9796e293b05b,42.2166613647143,-70.9024789113432
179,853 Hills Overpass Apt 37,,Yarmouth,,,Barnstable County,FI,03c27eb9-617b-4ad2-85c8-d3825120cf3f,41.6819140523225,-70.2017805854046
180,527 Conn Well Unit 77,,Boston,,2128,Suffolk County,FI,03c3d54a-980e-4dfa-bc9b-2fbf324f4587,42.3909007957584,-70.9764147144709
181,146 Metz Promenade Unit 92,,New Bedford,,2748,Bristol County,FI,03c48807-f7a1-4611-a431-53238e010a09,41.671058035851,-70.9696973255109
182,165 Lakin Wynd Apt 3,,Westport,,,Bristol County,FI,03c68f34-82c5-4fc6-b6dd-30b0a48a83a3,41.614976151989,-71.1014616580002
183,800 Friesen Harbor,,Dennis,,,Barnstable County,FI,03c76e69-348a-42fd-9154-22d09806c622,41.729458586615,-70.1874149794377
184,549 Collier Ville,,Natick,,,Middlesex County,FI,03cdda22-6676-4360-9919-bb713a43af70,42.2732109750541,-71.3151973759708
185,580 Wehner Road Apt 8,,New Bedford,,2740,Bristol County,FI,03ce5d28-b408-4c54-b71d-b757d986b1a8,41.6154986580114,-70.9673461399242
186,307 Boyer Junction,,Easton,,,Bristol County,FI,03d32806-974c-452d-849c-4ebd0f22113c,42.0119754253994,-71.0714759124271
187,389 Morar Vista Apt 93,,North Andover,,,Essex County,FI,03d782c0-0597-4b13-9eca-c00b952d8ece,42.6335818799009,-71.1166774930333
188,129 Padberg Ranch,,Stow,,,Middlesex County,FI,03e20d80-aa41-47e9-bcd0-b8594e9bc1ac,42.4233220729671,-71.4777345323542
189,639 Schaefer Alley Suite 46,,Westfield,,1085,Hampden County,FI,03e3093b-b972-4581-a3aa-a1c79edc6ae0,42.1529065276966,-72.7951451662447
190,589 Steuber Wall,,Randolph,,2368,Norfolk County,FI,03e51561-b67d-4fdc-a5d7-6eecb6f932be,42.2014172081031,-71.0661707490791
191,572 Brown Camp Suite 0,,Boston,,2130,Suffolk County,FI,03e8cd4c-6a6c-4750-b188-b5ef332b9bb2,42.2965226379865,-71.0667824773278
192,719 Wiegand Boulevard Apt 33,,Haverhill,,1830,Essex County,FI,03edc956-9354-4ae2-a375-5d5dfa7dd16d,42.7982846358495,-71.0781505594128
193,746 Ledner Avenue,,Plymouth,,2360,Plymouth County,FI,03f5fee8-7644-4a91-84bb-16ef934a2746,41.9362160167907,-70.6084582930179
194,377 Anderson Walk,,North Attleborough,,,Bristol County,FI,03fb7cd2-1145-47a7-943d-85bb51ca287f,42.0089768379907,-71.3089985484043
195,462 Mohr Bay Apt 64,,Nantucket,,,Nantucket County,FI,040b6dff-d445-45a9-8e02-0122da6cb3d0,41.2573401505295,-70.1037616351064
196,329 Shields Light,,Northampton,,1063,Hampshire County,FI,040c59db-65de-4fec-9ea9-11d93e9bb93d,42.3037778781364,-72.6399628906865
197,238 Gorczany Alley,,Millbury,,,Worcester County,FI,040d5c75-e927-4ea6-8340-c7d7cf1b77d4,42.1966770278433,-71.7990665417301
198,219 Mayert Wall,,Peabody,,,Essex County,FI,040dacf2-c92d-4dcf-9fce-bc353bc19a57,42.5479647755979,-71.071659796907
199,417 Fahey Village Apt 98,,Northborough,,1532,Worcester County,FI,040e1e0c-e4e2-4dac-8b43-c9fdca4bcec8,42.3008990575622,-71.6916410989448
200,526 Johns Quay Apt 2,,Templeton,,,Worcester County,FI,041533e5-d7ba-406b-9c57-6e0985b23486,42.5682121457493,-72.0741019317158
201,110 Carroll Ranch Suite 86,,Boston,,2108,Suffolk County,FI,0417252c-3de3-4626-9365-e280adfe878e,42.317161154345,-71.064556462828
202,940 Blick Lane,,Greenfield,,1301,Franklin County,FI,042c5cdd-f6cd-4f85-b326-261fcb82d709,42.6525586704924,-72.610719543636
203,986 Pfannerstill Parade,,North Reading,,,Middlesex County,FI,04324b60-8172-4e8f-a0ec-6127290fb07f,42.5891045098285,-71.073785147255
204,973 Buckridge Knoll Apt 20,,Sandwich,,,Barnstable County,FI,04329cd8-4407-46bc-a55d-68e8f04bb464,41.6975848886239,-70.4571404225082
205,560 Gerhold Lock,,Boston,,2125,Suffolk County,FI,043544da-51e5-4707-bd7a-a18b2d49788b,42.4556860677004,-70.9518215201476
206,1039 Krajcik Dam,,Great Barrington,,1230,Berkshire County,FI,043ab427-15f0-4e4c-b3eb-0ac363b897d6,42.1760540586817,-73.2972573813754
207,454 Carter Byway,,Boston,,2124,Suffolk County,FI,043f9b96-bb0c-4fe1-9ddd-8ce8ec6d9b33,42.3689824459939,-70.9696106369862
208,451 DuBuque Flat Apt 46,,Milton,,2186,Norfolk County,FI,045234d1-ae61-40f5-be51-218b82a8a87d,42.2179300860688,-71.0461286088313
209,454 Daugherty Loaf,,Newton,,2472,Middlesex County,FI,045477bd-305b-40a1-bae2-f3abb3814634,42.3292860453363,-71.2116961710053
210,974 Denesik Skyway,,Clinton,,,Worcester County,FI,045766eb-92cb-4530-bea2-fbb08f5b81f4,42.4225323182276,-71.7175493523542
211,715 Batz Corner,,Boston,,2118,Suffolk County,FI,045bc57d-e50f-462f-89d5-1841e57f2d67,42.3069098883004,-71.0768273828162
212,394 Harvey Lock Suite 54,,Harwich,,,Barnstable County,FI,045d5759-b783-4f3a-89a1-96862d6e8ceb,41.6952785320353,-70.0727725331443
213,144 Wolff Ramp,,Fitchburg,,,Worcester County,FI,045f0e6f-2e6e-4e6c-91a0-4f06578ea753,42.6483001653964,-71.7863034260547
214,183 Botsford Rest,,Leominster,,,Worcester County,FI,045f228b-1ca1-4c92-8ac6-6857177ed764,42.4718843166315,-71.808753156027
215,272 Greenholt Road,,Scituate,,,Plymouth County,FI,0466d705-74f6-4149-b009-2be76499f536,42.241447792302,-70.7591203121609
216,776 Russel Ville Apt 82,,Worcester,,1583,Worcester County,FI,046a1964-93f8-44c3-a6c2-cf44c1f7152f,42.3492052619656,-71.7736327562718
217,775 Wisozk Ferry,,Brockton,,2301,Plymouth County,FI,04710703-619c-4b87-940c-523cfd1d042d,42.1141268642301,-70.9918288740122
218,266 Senger Trail,,Stoughton,,,Norfolk County,FI,0477b33d-fe13-479d-bee4-4493c9daa9ea,42.1461871442385,-71.0715541509339
219,111 Franecki Fork,,Deerfield,,,Franklin County,FI,047e8799-c63b-4484-b666-71ea8dcd81e3,42.4997635480626,-72.6529770274271
220,192 Morissette Gateway,,West Boylston,,,Worcester County,FI,048692b7-548e-40bf-9a3c-9d097d173e76,42.3495179075388,-71.8184122711811
221,1021 Beatty Throughway,,Stow,,,Middlesex County,FI,048cebcf-1b48-4fee-af17-6428b1e1b775,42.465518661229,-71.5076812309599
222,437 Douglas Frontage road,,Charlton,,,Worcester County,FI,048d285b-a063-4f86-a97b-ea11bc4e1973,42.1444049027894,-71.9749482734447
223,863 Kassulke Mill,,Salem,,1970,Essex County,FI,048f15ae-fe05-4d24-9d15-8e4ede7a42da,42.5553729940082,-70.9109950082443
224,518 Considine Fort,,Everett,,2149,Middlesex County,FI,049d3977-9a67-4696-a184-01154f1e14fa,42.4193188307739,-71.1024257546824
225,479 Marvin Fork Unit 72,,Brewster,,,Barnstable County,FI,049f8a00-6adb-411e-b6e1-1fed9b34a018,41.7050227702263,-70.1134279610554
226,409 Roob Vale,,Winthrop,,2152,Suffolk County,FI,049fda9b-5d95-486e-b942-1a84e54a8dc0,42.3721735550488,-70.9881001909645
227,657 Towne Vista Unit 8,,Medway,,,Norfolk County,FI,04a272f6-d7da-411d-a631-dce484f7e5c9,42.200510158719,-71.3905247145616
228,556 Predovic Pathway,,Plymouth,,2360,Plymouth County,FI,04a4b627-6d06-42f0-aa32-7dc59f20a851,41.8985767005474,-70.6124126159483
229,171 Kutch Throughway,,Weston,,,Middlesex County,FI,04aa1ed7-4485-41e6-acdf-25bf93806e67,42.3260287196471,-71.352827832814
230,935 Morar Way,,Lawrence,,1843,Essex County,FI,04aa7814-6c94-4a94-a7df-e49cbe34ef82,42.7475932966673,-71.1481897915324
231,739 Friesen Alley Suite 6,,North Attleborough,,,Bristol County,FI,04bfb627-ce36-492d-b49c-9c381c8ecbb5,41.965070658953,-71.3708916819009
232,1079 McCullough Heights Unit 25,,Boston,,2122,Suffolk County,FI,04bfbabe-3ecf-4f45-844a-31ba4a6e82e5,42.2547734037513,-71.0193524740582
233,692 Collins Avenue Apt 67,,Fall River,,,Bristol County,FI,04c04c53-6854-4d78-aa98-fa8e135408d8,41.6464717130939,-71.1416734717859
234,855 Beahan Plaza Suite 36,,Winchester,,1890,Middlesex County,FI,04c8d243-cf3f-414e-ad23-5caedebccfd0,42.4174385187716,-71.1776207032273
235,615 Bode Mews,,Medford,,2155,Middlesex County,FI,04d88529-187d-4185-be5c-f392b14f7152,42.3839086672402,-71.0965622977894
236,786 Prosacco Wynd Unit 81,,Framingham,,1702,Middlesex County,FI,04e2cf7d-efdb-46dc-beff-d546983fc60f,42.284845007318,-71.433565972031
237,503 Simonis Mill,,Fall River,,2747,Bristol County,FI,04e735ae-b848-43c6-aed6-00cff9ed7fdf,41.7149060468465,-71.2151868359237
238,123 Schaden Way,,Amherst,,,Hampshire County,FI,04eec6e1-939b-46a6-a8ca-9ece41d56fc7,42.3823067129424,-72.4884072376487
239,961 Reinger Parade Unit 82,,Salem,,,Essex County,FI,04efbc17-5b23-41c8-a6eb-4f5fce6f4ad3,42.4944341555318,-70.9398795679118
240,460 Beer Rue,,Bridgewater,,,Plymouth County,FI,04f250ff-8fec-4ea7-b8e0-3e4d48dca1af,41.9330394763118,-70.9749429918733
241,162 Jacobi Quay,,Canton,,,Norfolk County,FI,04fa0d10-ae51-4f6c-aa0e-67bdcfbad230,42.1307412054828,-71.1371442671188
242,1030 Kuhic Wall,,Methuen,,1841,Essex County,FI,04faf33f-79df-41e6-a661-5e1c986729a6,42.7485263198682,-71.1706985381311
243,985 Gerlach Passage,,Boston,,2115,Suffolk County,FI,04fe2556-8e03-4f46-9a22-7bc5908aab35,42.412844899426,-70.9692369617141
244,829 O'Connell Alley,,Shrewsbury,,,Worcester County,FI,0504230c-6c05-4685-a590-18ea3e836a74,42.2711864371817,-71.7250844518841
245,565 Weber Loaf,,Harwich,,,Barnstable County,FI,050a7fe6-ab2a-49a1-b9e4-e0e67c558f4a,41.7449934473014,-70.1181328344368
246,559 Yost Stravenue,,Westwood,,,Norfolk County,FI,050b4c2e-78c8-4bcf-834a-a41a1a8e7f93,42.2386949309965,-71.197983279987
247,633 Kohler Bridge Unit 39,,Lowell,,,Middlesex County,FI,0517f0fb-7be3-409a-9880-b9fa4dec5591,42.6532121686705,-71.3016792643951
248,421 Dickinson Boulevard,,Watertown,,,Middlesex County,FI,051b5f4a-dd80-4f02-900a-99e399978a33,42.3671360292844,-71.2100463840949
249,888 Conroy Rest Apt 91,,Lowell,,1850,Middlesex County,FI,05228190-9a3c-463a-b66e-e29f68d5b67f,42.6437501167322,-71.2555967923802
250,502 Kunze Rapid,,Millbury,,,Worcester County,FI,052ce947-7f9e-40c6-bb52-c0298416c84c,42.1757922269796,-71.7366093484582
251,314 Bruen Brook,,Rehoboth,,,Bristol County,FI,0536cb5e-6a83-4ebb-98b2-800b7a509d42,41.8343120176097,-71.2668377904205
252,1053 Barrows Landing Unit 81,,Wareham,,,Plymouth County,FI,0539fbb5-37f2-46d6-8a94-6ad006230cf2,41.7560421747304,-70.7055390544521
253,930 Bernhard Junction,,Boston,,2134,Suffolk County,FI,05413081-d77b-4233-a5d0-22a4e4c3626c,42.3942692471791,-71.0753793319842
254,362 Hagenes Estate,,Weymouth,,,Norfolk County,FI,054876bd-d0fb-42a8-b98d-c22f8ad89964,42.184092780317,-70.9638491147788
255,500 Gutmann Gateway Suite 55,,Rowley,,,Essex County,FI,05661dcc-76f2-44e0-ac79-507006653ad0,42.7018012703113,-70.844325752091
256,167 Homenick Plaza,,Stoughton,,,Norfolk County,FI,056f7c45-574c-493f-9ccf-764cbf9c1ff8,42.1139142121377,-71.0829940471768
257,557 Watsica Rue Unit 94,,Tyngsborough,,,Middlesex County,FI,0571064a-a701-448a-93c3-83d21f2a729f,42.6185959044845,-71.4164644742166
258,386 Cummerata Gate,,Millbury,,,Worcester County,FI,057d6ad0-9fc6-4642-a9a6-7f2b8b784e78,42.1845292169322,-71.7455767746718
259,481 Nitzsche Gate Suite 95,,Boston,,2116,Suffolk County,FI,057d7c81-4382-4cc8-a9c9-ea18118b8cb1,42.3001523702574,-71.1412363150027
260,101 Emard Skyway,,Chatham,,2633,Barnstable County,FI,05822328-acb1-4524-9598-2494a44cde16,41.6662807913077,-70.0206876084813
261,466 Gutkowski Passage,,Barnstable,,2635,Barnstable County,FI,0584e54c-90f5-4b6e-985b-54834fba6811,41.6429712939375,-70.2995657655297
262,901 Bernhard Throughway Suite 32,,Worcester,,1607,Worcester County,FI,058c7e4f-fd4f-4d07-a842-c7e28d3d6ff9,42.2674248741131,-71.8278939899896
263,761 Runolfsdottir Byway Suite 61,,Ashland,,,Middlesex County,FI,058f8f7a-468d-416b-add1-be96c9bc7fbb,42.2788240868803,-71.4539756898676
264,488 Lebsack Mission Unit 4,,Medford,,2145,Middlesex County,FI,059a5e07-6acc-4acd-9823-e7718b1ed094,42.424600139028,-71.1148162146821
265,500 Watsica Mill,,Methuen,,,Essex County,FI,05a02204-2979-48bb-bf78-48635eb14641,42.7404935128951,-71.1850231170391
266,580 Stracke Estate,,Waltham,,,Middlesex County,FI,05a51736-e5a7-4eb7-8d49-ff532e472e25,42.3946279812203,-71.2076412401371
267,471 Wyman Wall Apt 30,,Haverhill,,1832,Essex County,FI,05a695d2-d8ca-4c5c-a352-322f49163f96,42.778051002536,-71.096113560783
268,824 Runolfsdottir Viaduct,,Easton,,,Bristol County,FI,05a71c3d-b74d-4ca2-b933-60998345b3b3,42.0771733628352,-71.0972440574136
269,780 Weber Rest Suite 58,,Shrewsbury,,,Worcester County,FI,05aa77a2-1096-4c13-bc9f-e3284cea0711,42.3192170378377,-71.6657875031625
270,144 Ruecker Spur Apt 13,,Winthrop,,2128,Suffolk County,FI,05ab9b69-f522-4fff-9f05-3ad23844ed0c,42.3706833058729,-70.9961633221
271,589 Treutel Ranch Unit 54,,Tewksbury,,,Middlesex County,FI,05aba87e-9123-4245-a243-1d8baf0b0d3b,42.6396876275521,-71.2120185204074
272,339 Morar Track,,Holden,,,Worcester County,FI,05afd200-ce7c-484c-b026-a09ee6a19cec,42.3912461942181,-71.8517523287077
273,422 Hoppe Esplanade Suite 0,,Marshfield,,2050,Plymouth County,FI,05b11624-75ae-4350-95c5-bbd207a7981b,42.1240004426622,-70.7015389573726
274,1040 Crist Forge Unit 88,,Brockton,,2302,Plymouth County,FI,05b28d36-fbad-440f-a716-dc246b00a53f,42.0686603462676,-70.9658464274343
275,323 McClure Walk,,Brookline,,2467,Norfolk County,FI,05c15f7f-24e9-48a4-a10b-0046163746d7,42.3827850811644,-71.159152617085
276,342 Jacobson Terrace,,Swansea,,,Bristol County,FI,05c30fc1-3183-4348-aaf1-e338e6ac4e34,41.7528689078929,-71.257847115136
277,962 Williamson Lodge,,Salem,,1970,Essex County,FI,05cd4acc-4ea1-48a0-b9be-3c89a72c9c6d,42.4282571996977,-70.9425500044418
278,737 Hagenes Forge Unit 7,,Harwich,,,Barnstable County,FI,05cf8fa1-96e3-40f6-ba2c-6982f68a3a2e,41.6833499192169,-70.0692731176474
279,327 Davis Quay,,Hampden,,,Hampden County,FI,05d0d882-10e9-44d0-ae47-6919459bdcbc,42.0845610590859,-72.3966151824271
280,746 DuBuque Camp Unit 6,,Natick,,,Middlesex County,FI,05d0f714-da08-4488-880a-aa5e6e0d9bf6,42.2376490269152,-71.3500713362761
281,212 Sanford Center Apt 88,,Merrimac,,,Essex County,FI,05da13d4-b1f8-46b3-968b-d5c513f85835,42.8641031585857,-71.0512863203762
282,667 Dickinson Road Unit 67,,Middleborough,,,Plymouth County,FI,05db756e-187a-409e-8a53-ff6a2eb80520,41.8783315811191,-70.8983940869278
283,1011 Bogan Key Unit 2,,Brookline,,2445,Norfolk County,FI,05e4caa2-5a99-48a9-a847-8935fe87952c,42.3313011724606,-71.1335851451596
284,140 Wunsch Junction Suite 10,,Plymouth,,,Plymouth County,FI,05e9a2fd-c321-4c28-8fbb-13c99fb8effa,41.8876287330285,-70.5807430012944
285,722 Hilll Key Apt 53,,Worcester,,1606,Worcester County,FI,05ec182c-1db0-44b0-abf0-2d84bf2a13c0,42.3567669088917,-71.8019328347355
286,969 Will Green,,Marlborough,,1752,Middlesex County,FI,05eff55c-17a9-46d4-84d3-8b687cc059b3,42.3334843382297,-71.5780693207587
287,627 Quitzon Vista,,Boston,,2467,Suffolk County,FI,05f5e699-56ba-4c53-a983-3573cf97c361,42.3973318267197,-71.0703974258195
288,999 Connelly Passage,,Ashland,,,Middlesex County,FI,05f6a7ff-3c97-4154-ae5c-42e15143aaf3,42.2544689094025,-71.50719377071
289,1058 Wiegand Stravenue Apt 93,,New Bedford,,,Bristol County,FI,05ff993e-8446-437a-9ff3-4ec8c77a4171,41.7550565091804,-70.9277431787137
290,111 Boyer Haven,,Lakeville,,,Plymouth County,FI,0600d17c-01f2-49fd-ae26-75bbc1f48a4e,41.8099062083766,-70.9935229767381
291,390 Krajcik Way Apt 68,,Framingham,,1701,Middlesex County,FI,06095690-9bdc-464e-ae21-edf8b6a8a15e,42.2936780452472,-71.426205614175
292,917 Stokes Grove Apt 19,,Lynn,,1905,Essex County,FI,060ca04c-5cd6-4419-a499-4e3150d604c7,42.4823230657638,-70.9360469055034
293,942 Kovacek Promenade Apt 25,,Pembroke,,,Plymouth County,FI,061d36ac-df58-4091-ab03-f41063aaaedd,42.0756262340018,-70.7575712773618
294,847 Kiehn Bay,,Springfield,,1129,Hampden County,FI,06330486-c055-43f2-bd74-0c0926d74510,42.1177252425544,-72.574739785649
295,643 Ullrich Club,,Russell,,,Hampden County,FI,0634eadb-8522-4aa3-92f3-f3b81ed82b6d,42.1768056370365,-72.896236595698
296,590 White Center,,Millville,,,Worcester County,FI,063729bc-51da-438d-9c30-722f266fa169,42.0484215128194,-71.5364655036578
297,335 Nolan Harbor Apt 14,,Boston,,2152,Suffolk County,FI,06377f41-f726-4017-80ba-9072e4f7df95,42.2891515196186,-71.0881817772171
298,286 Schuppe Plaza Apt 16,,Pepperell,,,Middlesex County,FI,0642550a-ff59-4f17-8deb-fd894bab2113,42.6539043884677,-71.5569075608432
299,380 Muller Esplanade,,Easton,,,Bristol County,FI,0645c403-881b-4659-986e-45e7acc3a782,42.06676779528,-71.0796218461301
300,528 Will Manor Apt 13,,Danvers,,1937,Essex County,FI,065155c5-af40-466b-aefe-52014f63738d,42.5583522526069,-71.0279362246554
301,305 Jaskolski Landing Suite 12,,Dartmouth,,,Bristol County,FI,065a7fa3-5944-42e6-93d5-dbfa79d407f1,41.579360887065,-70.9150062479427
302,344 Roberts Heights,,Chatham,,2633,Barnstable County,FI,065c8844-2ddf-45a7-94af-56c3ca316473,41.6896712860459,-69.9263534915477
303,470 Boehm Junction Apt 10,,Boston,,2108,Suffolk County,FI,0667d6df-b45d-4a7a-ad07-431d28e1978d,42.3207482464509,-71.0219002983797
304,241 DuBuque Gardens Apt 61,,Oxford,,,Worcester County,FI,066ed3a1-d723-46ec-9a28-d50e54391a98,42.1736860964993,-71.8602954854201
305,316 Lubowitz Boulevard Suite 26,,Cohasset,,,Norfolk County,FI,06720f07-92d3-4b60-88d4-ec326c30b6cb,42.2723532487621,-70.8475828044747
306,719 Emmerich View Suite 85,,Rockland,,,Plymouth County,FI,0673f093-75f8-4470-8b28-1371897ad2fc,42.1292287367646,-70.9478811928726
307,417 Jast Plaza,,Cambridge,,,Middlesex County,FI,06740deb-322e-4953-ab3e-03057ae6f948,42.3427385516503,-71.1285166279552
308,1036 Hauck Wall Unit 78,,Greenfield,,1301,Franklin County,FI,067fffa5-b9a4-4812-bea6-46dc94c4f648,42.6135019561745,-72.5941508939312
309,812 Harber Trafficway,,Attleboro,,2703,Bristol County,FI,068bb56e-1969-4038-a946-689916d88f2c,41.9355674354356,-71.293589155027
310,428 Senger Divide,,Boston,,2203,Suffolk County,FI,0695d107-3b7f-43c5-b7e0-83d4ed2cebc8,42.3320373348224,-71.0331823231922
311,884 Kertzmann Well,,Everett,,,Middlesex County,FI,06989217-bc2f-479f-b27c-9d54ee457937,42.4204662447094,-71.0903726338418
312,325 Kozey Ferry Suite 5,,Townsend,,,Middlesex County,FI,06989423-72ff-46f0-a59e-cd64160c4c63,42.6891878652203,-71.7319257293974
313,853 Hilpert Vista Suite 46,,Millbury,,,Worcester County,FI,06bd3cde-3857-4414-a067-0545852c6ec4,42.1912618171869,-71.7971172202911
314,966 Rodriguez Fort,,Boston,,2130,Suffolk County,FI,06cd1583-e808-4d9c-af67-def2ebd5fb0f,42.3472250230045,-71.0584135129683
315,371 Adams Well,,Framingham,,,Middlesex County,FI,06cd7609-66d8-4e4a-a7dc-f409694456d4,42.3058770643196,-71.4517883886765
316,308 Bashirian Camp,,Medway,,,Norfolk County,FI,06cea188-4cb0-4008-959b-0ed6932f128c,42.1270420776644,-71.4645423761788
317,714 Williamson Camp Unit 44,,Salisbury,,1952,Essex County,FI,06d76a6b-8dbd-4a35-98f0-76f5e60a30a0,42.8318095735267,-70.8740808005092
318,117 Murray Camp Suite 83,,Falmouth,,,Barnstable County,FI,06db183d-73e0-4998-98fa-e66fb8ae382a,41.5739805957908,-70.6018018681116
319,623 Berge Approach Apt 22,,Brookline,,2215,Norfolk County,FI,06e04b50-1278-452b-8ca2-99b14a611154,42.299925696346,-71.1030844009957
320,844 Lebsack Trailer,,Lowell,,1851,Middlesex County,FI,06e21a4e-648f-4137-a5b9-f35ad6ee9b06,42.6084271049337,-71.3801015513545
321,286 Murazik Brook Unit 39,,Gloucester,,1930,Essex County,FI,06e645c4-f4c1-4fda-a9df-64ce327d936c,42.6400467538304,-70.7177898261636
322,216 Beier Lane Suite 61,,Everett,,2148,Middlesex County,FI,06e8b12a-f1f4-4c01-a941-679bd1adfc12,42.4345362266903,-71.0322681715333
323,1009 Ratke Grove Suite 22,,Marlborough,,1752,Middlesex County,FI,06ee76b4-a367-4859-828d-259cc6c71e1d,42.3857161016542,-71.5171747924389
324,509 Miller Meadow Apt 37,,Springfield,,1199,Hampden County,FI,06f56c91-b482-4c22-9dd4-7b62f2c6dc17,42.0837073152939,-72.6187226456774
325,197 Gorczany Gardens,,Abington,,2351,Plymouth County,FI,06f93073-bd44-4b4a-b446-339ee765c070,42.1477193215562,-70.9780290809023
326,476 Von Park Apt 32,,Boston,,2131,Suffolk County,FI,0708d007-e62a-4711-9246-f9417786e7bc,42.3500895837612,-71.1084197303125
327,291 Runolfsson Meadow Unit 45,,Needham,,2492,Norfolk County,FI,070b1a36-d275-4388-b121-9d6ab2a0ac1f,42.2825925829006,-71.2794588771745
328,1027 DuBuque Mill,,Yarmouth,,,Barnstable County,FI,070bf41b-3fe7-4fe7-8474-e43cb90e2a39,41.7149688515967,-70.2388943674646
329,622 Shields Wynd Apt 89,,Boston,,2125,Suffolk County,FI,07136f66-1cdb-48d9-8413-5e02089d0866,42.3529329142855,-71.0439128661782
330,289 Kling Avenue Unit 11,,Belmont,,,Middlesex County,FI,071b2227-2695-4258-ba18-fb1cce1642b8,42.4432376879026,-71.1849884789419
331,640 Roberts Walk,,Winchendon,,,Worcester County,FI,071e3505-f6ee-4cb9-930d-5123d56f0238,42.6560186913844,-72.0914350287466
332,770 Beahan Center,,Dracut,,,Middlesex County,FI,072143a4-d55b-4490-8e46-31f7d9f82955,42.6380179487038,-71.2785789580222
333,430 Thompson Crossing Unit 8,,Framingham,,1701,Middlesex County,FI,07274cea-fbc3-4443-803d-029b3bafb3a4,42.3579706742193,-71.4704155314928
334,531 Monahan Quay,,Hingham,,,Plymouth County,FI,0729b21a-d948-4fff-b5e0-ac3d17ce7f50,42.2309585799331,-70.9239452001227
335,442 Marquardt Dale,,Waltham,,2451,Middlesex County,FI,072b0f01-3429-422d-ba2a-a54f9e20d772,42.3792390483854,-71.2044591525877
336,207 Kerluke Underpass,,Boston,,2126,Suffolk County,FI,072e88a5-6bdf-4b31-9053-a3763b6b1a6e,42.3079872809648,-71.0629025125926
337,764 Spinka Branch,,Cambridge,,,Middlesex County,FI,07326b44-1ecc-4a1f-98b0-881a6841d91a,42.4153196383005,-71.1452851968981
338,673 Altenwerth Run,,Weymouth,,2190,Norfolk County,FI,0735aa48-7285-43ec-bbbd-b058c7e5267b,42.2473490417539,-71.0064149777441
339,868 Dicki Promenade,,Billerica,,,Middlesex County,FI,073bf8c0-ef83-4750-8169-84311a522497,42.5642790465017,-71.294654348745
340,773 Ratke Vale Unit 80,,Mashpee,,,Barnstable County,FI,073d7d69-6684-44da-91be-bcf638673c1b,41.6490275179787,-70.5254376131553
341,311 Borer Fort Suite 88,,Lexington,,2420,Middlesex County,FI,073fe752-0969-4159-baaa-0d33027a41c7,42.4226722907692,-71.2075608163177
342,571 Keebler Way,,Watertown,,2472,Middlesex County,FI,0746dabb-ac53-494e-a344-fd9cf0fbd090,42.3283116355218,-71.2043311705732
343,895 Schneider Parade,,Berkley,,,Bristol County,FI,07475fc7-080e-4b92-9db0-d9ae629064ba,41.8001412909058,-71.0854671581636
344,631 Hegmann Path,,Gardner,,,Worcester County,FI,07493f07-3fe9-40d5-a267-22fd05a64650,42.5365751274729,-72.0319476982418
345,464 Pagac Trail Apt 7,,Fitchburg,,1420,Worcester County,FI,0749fc86-4fd7-427b-b57d-e16d74b87c18,42.6344305461286,-71.8532572224928
346,587 D'Amore Crossroad Unit 95,,Lowell,,,Middlesex County,FI,0756510b-4648-4bfb-9f4f-62b2f910575a,42.6289285889532,-71.2871403729738
347,770 Eichmann Arcade Apt 87,,Everett,,,Middlesex County,FI,0758874a-db64-4265-984a-e6478af71389,42.3866179567247,-71.0914719328634
348,223 Dibbert Arcade Apt 55,,Dudley,,,Worcester County,FI,075896cd-e987-47fa-b9d8-9b8666fd9d06,42.0937155204843,-71.8926844763063
349,724 Homenick Key,,Peabody,,,Essex County,FI,07598f02-a2e4-47f0-9ca4-82870eb8bdfa,42.5234127252829,-70.9818032026853
350,145 O'Hara Quay,,Orleans,,2653,Barnstable County,FI,075b0b43-425a-4a4b-8a63-dd8779c2501d,41.781516634442,-70.0009650601604
351,583 Brekke Promenade,,Holyoke,,,Hampden County,FI,075bd9b8-1f3d-4b0a-a48f-b3e905dfe095,42.2292904533265,-72.622830900539
352,645 Conroy Mews Apt 13,,Taunton,,2767,Bristol County,FI,0760ee6c-ae47-4810-8f6d-bb34d2f254f3,41.9745939234373,-71.0538315027828
353,556 Breitenberg Harbor,,Boston,,2114,Suffolk County,FI,0761ffc4-7563-4401-8928-f7c7e04eb9e3,42.354327029632,-71.0739676583396
354,940 Hills Mill,,Grafton,,,Worcester County,FI,0765ee3b-3235-4fab-8be1-f8a93d114d87,42.1953765785559,-71.6596913143037
355,497 Farrell Rue Apt 47,,Brockton,,2302,Plymouth County,FI,076887ac-8d83-419d-96da-90c780c6b670,42.1148512030959,-71.0250232390779
356,309 Baumbach Viaduct,,Methuen,,,Essex County,FI,076993b2-e62e-4d9a-84f4-e599a861aa51,42.7785331548808,-71.2193089086714
357,810 Gislason Bypass,,Belchertown,,,Hampshire County,FI,076b46a1-0e70-41d5-937e-1a39c976f89a,42.2597903078947,-72.3574233356582
358,801 Toy Extension,,Georgetown,,,Essex County,FI,076de3e2-2858-452b-a905-7db94a149cf3,42.7203122662885,-70.9725833702962
359,654 Klein Rue,,Webster,,1570,Worcester County,FI,07762ea7-9ebc-4911-9e09-686407bc68bb,42.0821465401955,-71.8643489243894
360,833 Bailey Junction Suite 87,,Revere,,2151,Suffolk County,FI,0777c8b6-547a-498d-9015-181d107181c6,42.3702785089288,-71.0022990625247
361,128 Moen Dam,,Pepperell,,,Middlesex County,FI,077a7189-173f-4e1a-9212-c6135d49f6ee,42.7115636604292,-71.6188547256271
362,1080 Orn Drive Apt 6,,Somerville,,2140,Middlesex County,FI,07896607-b280-4d55-834d-7255ccf47103,42.4378772741621,-71.0848285248295
363,1027 Lesch Village Unit 15,,Duxbury,,2332,Plymouth County,FI,079a5203-1f3e-4181-8695-34e1c5856f76,42.0715491964852,-70.6609027340606
364,494 Ziemann Row,,Boston,,2127,Suffolk County,FI,07a196be-068f-4ae2-aa40-e971da854344,42.2806651284753,-71.1078724531834
365,822 Rau Neck Suite 3,,Canton,,,Norfolk County,FI,07ae6e38-8ac8-42c7-af49-955a267a765a,42.2209598933109,-71.1432853350825
366,736 Mann Crossroad Suite 56,,Pembroke,,,Plymouth County,FI,07c30a7b-0128-4919-90d9-fafa9b5e68d8,42.0243173132867,-70.8541849104644
367,550 Bailey Flat Unit 0,,Worcester,,1604,Worcester County,FI,07c5cbae-84bf-4b13-86bf-b74c2772e6dd,42.2683476475805,-71.8042998202292
368,400 Renner Manor,,Milford,,1757,Worcester County,FI,07c764c2-0566-4e04-904a-da3a96305102,42.1125975487424,-71.524230319977
369,727 Romaguera Wynd,,Plymouth,,2360,Plymouth County,FI,07c76a6a-2e67-40eb-ad39-b2a44c7115cb,41.858251047924,-70.643381367541
370,1053 Parker Ranch,,Melrose,,2176,Middlesex County,FI,07cf2851-ec58-4c56-b9f4-cd2ce71e7c4a,42.4127949017794,-71.0582518665865
371,399 Eichmann Ville Apt 79,,Revere,,,Suffolk County,FI,07d160c8-4b2c-421a-9938-fba300409964,42.4666081303528,-70.9872995006239
372,132 Flatley Wynd,,Boston,,2115,Suffolk County,FI,07d47ce4-cf32-484d-bafa-4790f8488d4e,42.3133537390882,-71.0755239556841
373,439 Kessler Gateway Apt 0,,Waltham,,2452,Middlesex County,FI,07d5a42d-4a78-45ba-8b94-035a98be77cc,42.4164241580475,-71.2507022714211
374,806 Rosenbaum Lodge,,Plymouth,,2360,Plymouth County,FI,07df7bce-cf3a-4e4f-87e2-fa3459bebd96,41.9310000857971,-70.6695192890612
375,113 Rolfson Key Apt 18,,Malden,,2155,Middlesex County,FI,07e1d348-67e2-47b4-b3e5-1fd6f74f91a0,42.4643150877094,-71.0796029863682
376,241 Trantow Divide,,Lynn,,,Essex County,FI,07e3c107-f8a4-4357-bcb6-ffce6c1b8c7e,42.4967988732094,-71.0082380260269
377,374 Daniel Promenade,,Boston,,2128,Suffolk County,FI,07e8878b-739d-4dcc-a6d8-e454c5443f96,42.2840777572175,-71.1575081986462
378,351 Abshire Fort,,Shrewsbury,,,Worcester County,FI,07eee643-7984-4913-823d-3afd2e20c1e6,42.2704151951614,-71.7143556805739
379,970 Hyatt Neck,,Swampscott,,,Essex County,FI,07f41008-ffb8-4ece-9372-5d40e01c8cd8,42.4753317692485,-70.9363287391177
380,933 Ortiz Parade Unit 73,,Salem,,1970,Essex County,FI,07f82e5a-8db8-4502-975a-4e635bcf79b7,42.5124628692697,-70.851206012479
381,1095 Weimann Vale Suite 81,,Chicopee,,1020,Hampden County,FI,07fcb4c1-dc61-475c-a8f9-f479a6c8aa62,42.1345161379688,-72.6292552336977
382,156 Windler Rapid,,Andover,,1810,Essex County,FI,08017ed1-a2fb-427b-97ab-f19d2611047f,42.623213987332,-71.2055573254814
383,267 Brakus Trailer Unit 42,,Framingham,,1702,Middlesex County,FI,0806476d-f8b5-4f72-a43f-5676d4ad3cdb,42.2534421970723,-71.3939518453105
384,282 Bailey Wall,,Randolph,,,Norfolk County,FI,080af475-533c-41a2-b72f-813851320bca,42.1673169667059,-71.0586714916819
385,723 Lakin Parade Apt 26,,Peabody,,,Essex County,FI,080cccd6-c0a1-4b32-be87-10c5f340914e,42.4915108068453,-70.9702936945219
386,447 Morissette Branch Apt 44,,New Bedford,,2745,Bristol County,FI,08111f11-e217-48d4-af75-d178f391cd44,41.7421979503434,-70.9845279343835
387,378 Bruen Gate,,Norwood,,2062,Norfolk County,FI,08153e23-1c20-4ab4-ad2f-5518e23481ff,42.1807099732042,-71.2528120605829
388,595 Marquardt Bridge,,Hubbardston,,,Worcester County,FI,08245fd8-951e-49f5-81eb-98364f56250c,42.4546719617234,-72.0497845114115
389,688 Kuvalis Frontage road,,Acton,,,Middlesex County,FI,0828feae-02e2-473a-b22e-e645b0bf0c60,42.436212342579,-71.4751186832033
390,341 Lemke Estate,,Springfield,,1105,Hampden County,FI,082ab487-b697-49b5-ae1d-57e3f30a78ca,42.0080565684949,-72.57544955799
391,1056 Weber Meadow Suite 40,,Revere,,2151,Suffolk County,FI,08318e52-26cd-4c83-b688-b839809a096c,42.4439623671557,-71.0011756436222
392,615 Gusikowski Rest Unit 45,,Carver,,,Plymouth County,FI,0831b912-b678-48fa-9463-7121fe0df83a,41.8568129193323,-70.721792816619
393,325 Reinger Bridge,,Palmer,,,Hampden County,FI,083378b4-48f0-45b0-82c1-9e864e73ec58,42.1609515423775,-72.3954768251775
394,1089 Fritsch Manor Apt 86,,Springfield,,1104,Hampden County,FI,083864ee-bd93-4b22-9762-36fba1956f28,42.1174736677969,-72.451128552882
395,1034 Deckow Brook,,Longmeadow,,,Hampden County,FI,083d24eb-c887-486e-bffb-d81707da63eb,42.0192174379313,-72.5709170825937
396,196 Blanda Underpass,,Abington,,2351,Plymouth County,FI,08425e4e-deee-4cb1-ac36-dc5834ed33e6,42.1170423799676,-70.9883915836898
397,323 Schimmel Underpass,,Chatham,,2633,Barnstable County,FI,084b97eb-e84d-47b5-9cc8-b2426270a6ff,41.6492153186503,-69.9508334647627
398,379 Cronin Harbor Suite 76,,Salem,,1907,Essex County,FI,084f9663-8473-4a07-b612-0f647183b28a,42.4723351103312,-70.9357269182934
399,167 Connelly Terrace Suite 60,,Whitman,,,Plymouth County,FI,08513567-df2b-4cb1-87dc-716db0a64971,42.0629691624769,-70.9758351692135
400,608 Greenholt View,,Wareham,,,Plymouth County,FI,0853aac4-5b50-4915-852a-0161492ae423,41.7633725713771,-70.6955979091798
401,144 Beier Mews Apt 71,,Newton,,2472,Middlesex County,FI,0853ea41-6747-4e3a-9326-db5c5b6802d4,42.3628832091022,-71.2210713181691
402,749 Anderson Club,,Chicopee,,1013,Hampden County,FI,085673cc-bc5d-4fd4-8d0c-74744585f73d,42.1854390370319,-72.5764148096724
403,639 Rice Grove Suite 61,,Cheshire,,1225,Berkshire County,FI,086a1c88-425e-45de-8977-b3afdbc6884c,42.5267893600509,-73.1530561918424
404,505 Roberts Road Unit 25,,Dracut,,,Middlesex County,FI,086aa384-f056-422d-92c7-d4bd211260a2,42.6901580133014,-71.3006967880329
405,686 Kohler Ranch Apt 91,,Boston,,2111,Suffolk County,FI,086d0127-14d2-4474-9d09-54e2036f1767,42.323004979558,-71.1541494175409
406,170 Hirthe Walk,,Boston,,2126,Suffolk County,FI,086e2d9b-5ef3-47e2-bc48-80c5bc26dfe3,42.3958403302012,-71.0802657442359
407,589 Stark Annex,,Lee,,,Berkshire County,FI,087337b8-f830-4b84-9eb3-c1bc05bb6241,42.2587598327908,-73.1922762928683
408,356 Steuber Loaf Apt 31,,Haverhill,,1835,Essex County,FI,08761a30-82fe-4a49-bae3-dd01da9297ce,42.8042320397669,-71.0601594845437
409,727 VonRueden Junction Suite 61,,Westfield,,1086,Hampden County,FI,0879dad7-d262-4460-93b1-13e95dce3422,42.1797888592118,-72.7892127679399
410,253 Hermiston Lane Unit 85,,Clinton,,1510,Worcester County,FI,087a76ae-4dae-458b-9497-51ddb33da984,42.3622421145494,-71.6553794036577
411,229 Barrows Trace,,Newton,,2460,Middlesex County,FI,087b6203-aaa8-4bf0-844e-080cb59db483,42.3474522781261,-71.2124513794228
412,1080 Brakus Crossing Apt 35,,Somerville,,2140,Middlesex County,FI,0884c020-20ac-4124-92aa-b97aee506a4d,42.4387093365953,-71.0942121879322
413,132 Herzog Ramp Unit 20,,Whitman,,,Plymouth County,FI,0884d77c-28ea-4acd-94b8-4c15dbbc335a,42.0541431752685,-70.9473156078571
414,212 Ferry Harbor,,Chicopee,,1022,Hampden County,FI,0888aa17-4967-4716-9a0b-b972a3a2ea74,42.179253948371,-72.599153503474
415,478 Brown Extension Unit 4,,Natick,,,Middlesex County,FI,088c6cb5-9859-4f36-88ba-c9289fa8519e,42.3111950419772,-71.350960870121
416,344 Murphy Lodge,,Holyoke,,,Hampden County,FI,088d4829-9d3d-4713-abca-48887fa03545,42.2048548495435,-72.6189760635296
417,837 Ferry Plaza,,Malden,,2155,Middlesex County,FI,088da978-07b8-4d4a-8687-7e7bcf10ed51,42.3922323224614,-71.0988246266491
418,442 O'Keefe Village,,Chelmsford,,,Middlesex County,FI,088dd37c-1dcb-4ed7-8838-00e8c7bc7845,42.6139202830203,-71.3830795674716
419,976 Boehm Lodge Unit 39,,Lynn,,1940,Essex County,FI,0892d0c1-261b-48e3-b722-ae988c5a4d72,42.4476417093986,-70.9773081030554
420,1054 Langosh Landing Suite 76,,Worcester,,1605,Worcester County,FI,0894dec5-318b-404c-b4d8-ff4eecca2afd,42.3046196460308,-71.6977348709292
421,880 Walter Forge,,Worcester,,1610,Worcester County,FI,089af86d-36db-4256-9892-61728d9cbc12,42.3964292952151,-71.7378551846826
422,723 Ratke Annex,,Quincy,,2169,Norfolk County,FI,08a38546-74f0-4499-bc48-13ec41854cca,42.2052990583125,-71.0414858340882
423,207 Dibbert Landing Unit 5,,North Attleborough,,,Bristol County,FI,08c2b4b2-e33c-4f57-a327-9f924206d2e3,41.9411938861723,-71.2886884918132
424,1000 Goyette Forge Suite 96,,New Bedford,,2744,Bristol County,FI,08c38608-409f-400a-9466-4b83a3750ed5,41.5114388627281,-70.9626886042905
425,923 Watsica Corner,,Lenox,,,Berkshire County,FI,08c76a0d-1a1d-4b36-9301-3e874bf9672e,42.3713860673634,-73.3010883254835
426,244 Sanford Crossroad Suite 86,,Acton,,,Middlesex County,FI,08c94824-7341-4573-b985-1f30c11afc26,42.5057832025337,-71.4838409888142
427,847 Zieme Esplanade,,Mansfield,,,Bristol County,FI,08cc82fa-43a9-40a6-9a7f-e40a2de8a034,42.0401081045746,-71.1930879922039
428,807 Hammes Key Unit 92,,Templeton,,,Worcester County,FI,08cf1c3e-6331-47d0-ad1c-7f5f6ca5c574,42.5908060089714,-72.0269734472068
429,728 Satterfield Divide Unit 26,,Braintree,,2184,Norfolk County,FI,08d69d38-2e75-43ae-8ec5-ea7a53bf86bf,42.230378111332,-71.0302893267215
430,147 Turcotte Ranch Suite 97,,Brockton,,2351,Plymouth County,FI,08e95979-87a9-422f-903e-c2f1bbd04c6d,42.067540477975,-71.0082976565796
431,244 Johns Fort Unit 38,,Foxborough,,,Norfolk County,FI,08eb311c-8574-4ea8-a0b8-06c7fa0f47e7,42.0811139173627,-71.2777556917711
432,275 Wilderman Neck Suite 53,,North Attleborough,,,Bristol County,FI,08ee0546-c5ba-4aea-8d3b-4de7e85dd832,41.9885267932484,-71.3661811016781
433,779 Kohler Alley,,Haverhill,,,Essex County,FI,08f190e1-082d-4e28-a716-cfffe508a30e,42.7692684274567,-71.1005040293722
434,432 MacGyver Dam Unit 49,,Merrimac,,,Essex County,FI,08ff72e1-144f-41b6-b0eb-8986045d3fcf,42.8685659911074,-71.0333983527905
435,670 Blanda Promenade,,Weymouth,,2191,Norfolk County,FI,090a26d5-a5cb-48dc-966b-9a06d15c8e23,42.1708937426728,-70.9398962299774
436,848 Bartoletti Mews,,Harwich,,,Barnstable County,FI,090d143d-face-4d0a-ae2c-ca9afba6c4c2,41.7094476537633,-70.0933589729056
437,646 Tillman Track Suite 67,,Gloucester,,1930,Essex County,FI,090e679c-8257-4390-a214-65e848b81e27,42.6624284376394,-70.6612311968642
438,217 Kovacek Landing,,Gloucester,,,Essex County,FI,090fafab-7823-4779-a668-fc50a7839fd2,42.6409829442286,-70.6805839578976
439,804 White Way Suite 76,,Marshfield,,,Plymouth County,FI,091db97b-ff1f-42e1-b19c-65eba0f1874f,42.1074760874209,-70.7347897502527
440,535 Hettinger Fort Apt 10,,Quincy,,2186,Norfolk County,FI,0936d7b0-cb09-4213-a41d-a7c92570810e,42.2574336316049,-71.0998346609848
441,221 Ernser View Unit 38,,Franklin,,,Norfolk County,FI,09414fcb-00f8-4152-9463-12f3577b493b,42.0901002442811,-71.3753739018639
442,330 Purdy Promenade Unit 84,,Southbridge,,,Worcester County,FI,09434987-1675-4ab7-be40-73501ac73c82,42.039973319145,-72.0595360336945
443,560 Swaniawski Bypass Suite 88,,Brockton,,2302,Plymouth County,FI,094dafff-7de1-411b-bc9f-b774160342d4,42.0608660029316,-71.0608082852777
444,392 Homenick Approach Apt 86,,Springfield,,,Hampden County,FI,0955ea5e-6d70-41d6-b6d3-f1a8c91615e0,42.0892159567736,-72.5523924634259
445,711 Pfannerstill Annex,,Norfolk,,,Norfolk County,FI,095d9bf5-145b-4a98-b892-9fb2cd35b137,42.1648543847124,-71.3418522139095
446,894 Heaney Harbor,,Marlborough,,1752,Middlesex County,FI,095f4cb1-5db3-4441-a0b9-51a05e7a1c8e,42.3321471181611,-71.520837594723
447,200 Nader Green,,Medford,,2155,Middlesex County,FI,09602b20-a620-46b6-a6ab-5c5779d5431d,42.4191955687018,-71.0919177299718
448,253 Parisian Knoll,,Worcester,,1606,Worcester County,FI,0962e8f2-84c9-4f98-936d-68b641f29d48,42.3172542267355,-71.8310174130341
449,470 DuBuque Trail Apt 91,,Fall River,,2747,Bristol County,FI,09707416-40a5-43cd-aa34-2c332be5947b,41.6401789187559,-71.0389969421213
450,197 Simonis Path,,Stockbridge,,,Berkshire County,FI,09743108-3e06-43fe-95ce-faa8e77513cc,42.3105325554202,-73.3080767100686
451,281 Ebert Wynd Apt 8,,Cheshire,,1225,Berkshire County,FI,09804420-2447-469c-96af-b5913274e92c,42.5262811589117,-73.099809082564
452,382 Fahey Burg Suite 93,,Dartmouth,,,Bristol County,FI,098a6b74-d5af-4baa-987d-e2020905f283,41.5382778909249,-70.9304180857604
453,582 Legros Well Unit 54,,Easton,,,Bristol County,FI,0992722a-4e53-4f18-ba21-62ef1fa0baba,42.0040384025263,-71.0874081621326
454,559 Mosciski Mews,,Fall River,,2721,Bristol County,FI,09a2ceb1-eac1-49ae-aafc-448dabb6ac9d,41.6459024440506,-71.1305759703093
455,763 Mosciski Annex,,Lynn,,1940,Essex County,FI,09a32a48-b781-4c51-9933-9979d35a0acb,42.4566516216728,-70.9753959489547
456,685 Olson Rest Unit 59,,Natick,,,Middlesex County,FI,09a81133-cd85-41f8-b21a-d862366c0d06,42.3072933690427,-71.3435159257867
457,246 Crona Mall Apt 66,,Millville,,,Worcester County,FI,09a8cfc2-62cb-4ab9-9e2c-6a0665fb494c,42.0714366069619,-71.5679860952771
458,716 Wilkinson Stravenue Suite 33,,Wilbraham,,1095,Hampden County,FI,09abbd8e-3ce9-42ec-8faf-9237e15979fc,42.1039110278065,-72.4443081406039
459,736 Berge Skyway,,Pittsfield,,,Berkshire County,FI,09af32b0-49f6-4b13-bb3f-497a8a36be0b,42.4836808874219,-73.2474963941327
460,754 Hermann Walk Unit 89,,Barre,,,Worcester County,FI,09b2b2ba-958a-433d-b591-49d65e6616a0,42.4529413095983,-72.0576886609663
461,775 Hudson Harbor,,Ludlow,,,Hampden County,FI,09c1bd25-b854-4d74-b006-442fb6d1b3d9,42.2235658862849,-72.4511341641288
462,966 Krajcik Neck,,Reading,,,Middlesex County,FI,09c234fd-a39d-4154-acb7-95da82b4efb3,42.4462391156134,-71.1668022979811
463,380 Marks Dale,,Acton,,,Middlesex County,FI,09c41fb2-9023-4fea-b65c-a8dd85cb9850,42.495460215487,-71.4641313324738
464,731 Hessel Mall Unit 69,,Berkley,,,Bristol County,FI,09c572f3-592a-4aa7-8638-7167088b0bcb,41.7974528296428,-71.0780245034716
465,598 Gorczany Vale Suite 38,,Dedham,,,Norfolk County,FI,09c61fb8-89e3-4a97-804e-55991324e4d6,42.2343925595811,-71.1565965191415
466,123 Predovic Mall,,Mendon,,,Worcester County,FI,09cfeb4b-b32e-47d9-9d6a-692a78140b0b,42.0513856594357,-71.5084939259148
467,546 Berge Gardens,,Taunton,,,Bristol County,FI,09d41f1f-1aa0-432f-a192-535f1e2f053b,41.8983374002184,-71.0810299588895
468,233 Romaguera Branch Unit 0,,Salem,,1970,Essex County,FI,09d9ccd1-7af4-4dea-9549-85394b050862,42.4885756585276,-70.8601311186635
469,1088 Kiehn Way,,Randolph,,2368,Norfolk County,FI,09dae250-8fe2-485b-b75b-5fb26d16754d,42.1776385529705,-71.0458290679015
470,338 Kuphal Arcade Apt 34,,Lynn,,1940,Essex County,FI,09df26c3-b34c-42e0-ba26-214988fda2f8,42.4906463374198,-71.0160550154163
471,228 Luettgen Landing Unit 18,,Watertown,,2472,Middlesex County,FI,09e0e868-60e4-4f31-a115-b3ade9d4de3d,42.3359666166056,-71.1586393578278
472,634 Christiansen Park Apt 77,,Barnstable,,2648,Barnstable County,FI,09eeb2e5-14a2-42cb-866d-8ef3860bbc60,41.655549199743,-70.4075582000303
473,668 Schneider Annex Suite 87,,Quincy,,2169,Norfolk County,FI,09fbc5d3-e33a-4d24-8c95-0ecb85719eb5,42.2653639269781,-71.1251642478354
474,1016 Kuhn Rest Suite 77,,West Springfield,,,Hampden County,FI,0a060283-7cef-4ca9-aea6-00de1912a074,42.1447946266239,-72.6697933336562
475,948 Schaefer Corner,,Concord,,,Middlesex County,FI,0a0fa4f7-8ed1-408b-be9b-f72dabbc95ae,42.414585197779,-71.3210764988414
476,938 Gerhold Orchard Apt 56,,Pembroke,,,Plymouth County,FI,0a117583-8ab6-4d37-9ff8-08791758d24f,42.061128400768,-70.8215555284144
477,128 Predovic Ferry Suite 75,,Brookline,,2446,Norfolk County,FI,0a1297bb-f95d-4ff2-a47d-185f87805e62,42.3030616804608,-71.1442280321847
478,194 Baumbach Plaza Apt 6,,Wilmington,,,Middlesex County,FI,0a12c498-aa73-4978-a482-c3939dbce7c0,42.6011667538811,-71.1854656585882
479,623 Boyle Underpass Apt 96,,Chicopee,,1013,Hampden County,FI,0a14c8a2-ffdb-4db9-a27d-99ffd7689300,42.15960244357,-72.5326885521981
480,559 Wilderman Parade,,Royalston,,,Worcester County,FI,0a1e3522-f26e-4f68-a64c-044c4376f18d,42.6687873471786,-72.1919486875303
481,652 Keebler Underpass Suite 5,,North Adams,,1247,Berkshire County,FI,0a218e9e-53b2-48b2-ba2d-e0bb9a1326df,42.7415987654666,-73.0416545984803
482,173 Kreiger Branch Unit 0,,Middleton,,,Essex County,FI,0a29a7bf-4334-4a4e-9339-0b0dfb164848,42.5976138230996,-70.9755486196062
483,557 Stark Vista,,Dracut,,,Middlesex County,FI,0a2d2592-feb6-4385-aef1-a47cc5c1d6f3,42.6587895656407,-71.3465015624711
484,880 Russel Terrace Unit 37,,Lawrence,,,Essex County,FI,0a2df24a-1f21-42bd-bff0-cbbd70f13e5b,42.7476416175709,-71.1749646586724
485,630 Mills Knoll,,Melrose,,2176,Middlesex County,FI,0a31027d-5721-4ed1-94eb-ea3e2943c37a,42.4367693177252,-71.0860595710665
486,232 Gutmann Drive Suite 24,,Charlton,,,Worcester County,FI,0a315c97-7c7a-48ca-8824-d03ba67ba976,42.1780689206972,-71.9586384410244
487,888 Fadel Haven,,Berkley,,,Bristol County,FI,0a31acd1-6316-4028-ad5c-7aa3e6ecfe67,41.8744906165274,-71.0827272633859
488,912 Ortiz Flat,,Dighton,,,Bristol County,FI,0a326991-efc8-4bc6-ae38-42b71648bbe9,41.7898873013799,-71.1046218652684
489,561 Hegmann Glen,,Weymouth,,2190,Norfolk County,FI,0a376807-1160-4101-90ea-975c5e9a13cc,42.212779966021,-70.9350721075832
490,617 Batz Path,,Brookline,,2467,Norfolk County,FI,0a4675fb-e1c7-434a-82b8-e2974ae54e46,42.3482169796784,-71.1030955058117
491,1071 Cremin Knoll,,Andover,,1810,Essex County,FI,0a46b3f1-e8a5-4182-88fd-067a55d422c7,42.6905520715745,-71.1579960472444
492,330 Kiehn Estate Suite 57,,Sharon,,2067,Norfolk County,FI,0a47208c-8399-4810-a6f8-eddc698827cc,42.12847258611,-71.2121728206955
493,474 Kris Promenade,,Lanesborough,,,Berkshire County,FI,0a4bf7ac-3375-4cb3-9559-87c62e99b4e5,42.5402876848251,-73.2295274168744
494,518 Klocko Gate,,Newburyport,,1950,Essex County,FI,0a611ad3-e2da-4a03-a3f1-44c0c4e9f39c,42.8426678980474,-70.8667779200063
495,697 Hilll Extension Unit 62,,Great Barrington,,,Berkshire County,FI,0a698442-cc3e-41e1-812d-01a38bcf2803,42.1948398404465,-73.3135157370332
496,985 Daniel Ferry,,Boston,,2129,Suffolk County,FI,0a786d50-df20-4b82-b9e7-f6fce54931d1,42.2604111542302,-71.1029922436925
497,328 Hauck Corner Unit 57,,Marion,,,Plymouth County,FI,0a788833-78d7-4df9-869f-44f8a8b1a92e,41.6960812511318,-70.7901149770978
498,970 Wolff Divide,,Lynn,,1905,Essex County,FI,0a79f135-710a-49f1-aec0-65017a6281aa,42.4485369651229,-70.9802693984569
499,570 Romaguera Station,,Newton,,2462,Middlesex County,FI,0a7fe5c8-a402-4adf-be21-a92c4f8aee70,42.2832091860257,-71.2104292778439
500,264 Kassulke Stravenue,,Arlington,,,Middlesex County,FI,0a824e3c-c486-4fe3-8401-5138aead96fa,42.4185988699031,-71.1518277560344
501,326 Stehr Alley Unit 69,,Lowell,,1850,Middlesex County,FI,0a8297e1-08e2-4bd0-85e9-e6b06f0eb0fb,42.6243822275594,-71.3737561325972
502,203 Muller Gate,,Westfield,,,Hampden County,FI,0a82dfa9-b60e-4bcb-a101-21af2406bc49,42.1246185466555,-72.7487296196435
503,180 Rau Estate Apt 2,,Dennis,,,Barnstable County,FI,0a83f64f-d441-4127-a248-74490f2dde73,41.6856568968425,-70.1837276458109
504,536 Konopelski Flat Unit 66,,Scituate,,,Plymouth County,FI,0a856c48-ef08-4dae-aa01-3bdda22d1491,42.2090821723826,-70.7667056793133
505,682 Sporer Annex,,Hull,,2045,Plymouth County,FI,0a87fef4-9c21-4a01-a9bf-03665a9abf84,42.2709863822809,-70.8786892008902
506,881 Collins Rest,,Barnstable,,2655,Barnstable County,FI,0a8a975e-0a83-4fb0-a335-29a9b22654d5,41.7089070825557,-70.2619243630671
507,403 Rowe Branch Unit 74,,Southbridge,,1550,Worcester County,FI,0a8aa807-94dc-40d4-8718-d2e60f732398,42.0839546398144,-72.0170410271199
508,804 Botsford Trail Suite 56,,Medford,,,Middlesex County,FI,0a94330e-0b2f-48b8-9b47-557ebd8d3232,42.4000378242068,-71.1333328112305
509,1096 Hettinger Alley Suite 39,,Stoughton,,,Norfolk County,FI,0a95fd3d-33e6-4a95-ab53-6506771d1857,42.1607869495466,-71.1186443864896
510,960 Stroman Burg Apt 9,,Easton,,,Bristol County,FI,0a96cbfa-58b2-4fe0-a312-92123932f6f3,42.0409958722307,-71.0672261821135
511,484 Bergnaum Village,,Boston,,2125,Suffolk County,FI,0a990efc-72f6-4b76-b5a2-64ccdfeefbca,42.351217119661,-71.1143454831621
512,126 Kuhic Trail Suite 1,,Worcester,,1603,Worcester County,FI,0aa3e704-5729-4f4c-8a30-a2479150cfea,42.201405236573,-71.8267619549651
513,1002 Hansen Alley Apt 9,,Northborough,,,Worcester County,FI,0aaafa58-6ac7-4a0b-aab1-b499e626f3f5,42.2779095329202,-71.6469983993677
514,372 Hayes Path,,Pittsfield,,1201,Berkshire County,FI,0aab8b57-6b35-4528-81bf-6092b018fad8,42.4071148446879,-73.2555123961183
515,714 Kutch Vista Suite 75,,Canton,,,Norfolk County,FI,0aabb459-4925-41ce-ae92-e2889a4cddc1,42.1785893554772,-71.0805322486357
516,486 Powlowski Plaza Suite 45,,Weymouth,,2191,Norfolk County,FI,0aaee693-a315-41c4-aebb-6876accd17c2,42.2162626127444,-70.9822087540074
517,863 Homenick Pathway,,Fitchburg,,1420,Worcester County,FI,0ab3542a-efaf-4cd6-ba7f-ca5657921062,42.5814332313268,-71.8213911564353
518,423 Green Mill,,Ipswich,,1938,Essex County,FI,0ab3b359-fda7-4f8d-a09f-25200892574c,42.7152182159321,-70.8182624931488
519,1027 Monahan Mall,,Taunton,,2718,Bristol County,FI,0ab5926c-d104-4992-a305-53a81c0ea7b8,41.9814717300074,-71.0081405432971
520,191 Gutmann Key,,Tyngsborough,,,Middlesex County,FI,0ac301da-fd06-4639-b15e-6f4fb23a1e22,42.7095083611128,-71.4392520094474
521,756 Romaguera Promenade,,Chelmsford,,,Middlesex County,FI,0ac738ec-b053-4f60-af43-2d33369548c3,42.5479682212916,-71.3982773038798
522,372 Hudson Manor,,Belmont,,2472,Middlesex County,FI,0acca381-8d4b-4817-9be8-06305678fe4e,42.4058544264191,-71.2035541957236
523,653 Wintheiser Park,,Haverhill,,,Essex County,FI,0acd8c1c-69ff-43f4-a6a0-9171aaa045f4,42.7783367961006,-71.1113688020142
524,901 Quitzon Spur,,Ipswich,,1938,Essex County,FI,0acddcb4-6fae-49f9-8e89-174f193fc3c7,42.6986347870625,-70.7949703924562
525,323 Kuvalis Wall,,Chelsea,,,Suffolk County,FI,0ad10d1a-b03b-4eec-ac6e-14fd756f9164,42.4044624085333,-71.0491752713411
526,104 Nicolas Knoll Apt 69,,Plymouth,,,Plymouth County,FI,0ad9973a-7c6c-45a3-b4d2-b184d9090a8d,41.8795316564299,-70.6246790394371
527,1083 Lebsack Way Suite 78,,Rehoboth,,,Bristol County,FI,0adb5d54-7d70-4df5-b5cc-af9f14b2ce6b,41.8476691812268,-71.276520162205
528,589 McKenzie Dale Apt 87,,Oxford,,1540,Worcester County,FI,0add36e2-778a-4610-997d-7e303ec99aa7,42.1425403955262,-71.8163858259135
529,183 Mayert Wall Unit 0,,Plymouth,,2360,Plymouth County,FI,0ae0bd1d-972a-4166-8d0d-1d7275af36d6,41.9279136370755,-70.6490342490344
530,215 Cassin Bypass Unit 58,,Cambridge,,2138,Middlesex County,FI,0ae26bb4-526f-4141-9169-1a8ad6fd4dee,42.3585205179305,-71.1859556428434
531,169 Wisozk Mill Unit 2,,Malden,,2148,Middlesex County,FI,0aea35ca-6563-4aed-838a-dcd74bda1f2b,42.45635118856,-71.0601190877967
532,291 Runolfsson Run,,Northampton,,1063,Hampshire County,FI,0b007a48-87f9-4611-8b15-06c317bcbbcd,42.3400946228313,-72.7201807753524
533,260 Bailey View Suite 65,,Mansfield,,,Bristol County,FI,0b00bb36-4c55-461f-99e2-449437002ea1,42.0648267194244,-71.1678332040154
534,350 Mante Center Unit 9,,Brockton,,2301,Plymouth County,FI,0b03a7b8-262c-4069-89ce-83a3b2cb0354,42.1196331615794,-71.0052212013893
535,1011 Windler Terrace,,Boston,,2119,Suffolk County,FI,0b108d24-b7a8-4581-b4fb-842dbd7d17d7,42.2274683135858,-71.0867677220034
536,485 Muller Avenue Apt 50,,Wareham,,,Plymouth County,FI,0b16abc8-64ed-4b00-b256-4a771d8eef4a,41.7841444116978,-70.726842819848
537,1045 Hettinger Rest,,Kingston,,,Plymouth County,FI,0b1ee1c4-93af-42a2-9f0a-00c49567829b,41.9481376649056,-70.7791847675647
538,695 Armstrong Lock,,Millis,,,Norfolk County,FI,0b26a77a-e07a-4f1d-9876-612aee76c46f,42.2214317458317,-71.3636023614052
539,598 Trantow Burg,,Middleborough,,,Plymouth County,FI,0b2816c2-c544-4531-a670-deb3e24ac209,41.8671492939486,-70.843758568378
540,480 Quitzon Ville Unit 78,,Andover,,1810,Essex County,FI,0b2ee646-7d57-4eb5-9957-427cfce1f80c,42.6850406502783,-71.1747106912073
541,118 McClure Gate,,Reading,,1867,Middlesex County,FI,0b3a1d58-462b-43c4-a838-a01fa4974e7c,42.5212541244835,-71.1017047061901
542,176 White Trail Suite 56,,Springfield,,1119,Hampden County,FI,0b3bf5e8-943f-4f42-9728-7463881c1966,42.1174992541215,-72.5223348540738
543,416 Ullrich Approach,,Dracut,,,Middlesex County,FI,0b426425-bac5-43b8-b6d9-acc57e34641f,42.6959311518401,-71.285988456844
544,511 Murphy Extension Apt 49,,Marlborough,,,Middlesex County,FI,0b44d165-2383-400d-9c5e-bb171da5faf0,42.3787916687451,-71.5408641011228
545,819 Cassin Frontage road Suite 31,,Brockton,,2302,Plymouth County,FI,0b46f5fc-76f6-4639-a960-42b21409148e,42.0690757757635,-71.0009963734793
546,515 Carroll Drive,,East Bridgewater,,,Plymouth County,FI,0b480140-88d0-47a2-bd37-ba4db3fda0bf,41.9976784010184,-70.9761380084093
547,968 Brakus Lodge,,Boston,,2120,Suffolk County,FI,0b4f96a9-33f8-4134-ad37-d0b2cb46bb4d,42.3909439089877,-71.083746359548
548,954 Blick Throughway Apt 58,,Deerfield,,1342,Franklin County,FI,0b52f42c-9cc4-4a90-b473-93bf54c6b04b,42.5007696667694,-72.6510521368023
549,732 Boyle Trailer,,Fall River,,2723,Bristol County,FI,0b5cf697-44e4-43dc-82a1-edd5a26ee5ec,41.5886833788502,-71.1133011535062
550,151 Runolfsson Dam,,Natick,,,Middlesex County,FI,0b5f8dec-5cd7-4e0c-a774-446fbe9b8bb7,42.273810338768,-71.300353783306
551,872 Fahey Route Suite 91,,Revere,,,Suffolk County,FI,0b62285f-2829-4b7c-937c-db543c8e6755,42.4016799389551,-71.04924512192
552,102 Jacobs Boulevard,,Worcester,,1605,Worcester County,FI,0b690d0b-7a1c-4e0b-827b-28cb714ceeaa,42.2715437411643,-71.7433757216371
553,1098 Considine Junction Suite 67,,Chelmsford,,,Middlesex County,FI,0b6f3be5-8e44-4e0a-a854-8925b5522203,42.6332100165847,-71.3967526425221
554,528 Stehr Knoll Suite 87,,Malden,,2155,Middlesex County,FI,0b766041-8be3-437e-ab44-c92f99bda12f,42.4370577833231,-71.0332846316917
555,603 Bosco Quay,,Pittsfield,,,Berkshire County,FI,0b7e2439-fdd7-4d8d-9c05-580def45e45d,42.4323309337642,-73.2813186521274
556,1054 Gerlach Ferry Suite 64,,Tewksbury,,,Middlesex County,FI,0b7e67af-6a2c-4c00-a691-f84e23e55ce4,42.6488425486625,-71.1833781347568
557,965 Stracke Drive Apt 45,,Melrose,,2176,Middlesex County,FI,0b83fb3d-1026-4ce7-9bf4-ec3a8390c6ac,42.4398071654093,-71.075596024061
558,661 Simonis Loaf Apt 77,,Ipswich,,,Essex County,FI,0b87912a-ec5d-4716-ad41-e90c2c80e0b1,42.6377892092752,-70.8526838498501
559,884 Gerhold Rue,,Malden,,2148,Middlesex County,FI,0b889a9d-9011-4abf-a527-65d86953690c,42.3966818279651,-71.0602590425285
560,797 Waelchi Knoll Apt 58,,North Attleborough,,,Bristol County,FI,0b9a25dd-bad6-4692-a801-c6159f129d83,41.9807074533402,-71.3327807462731
561,215 Rau Bypass,,Scituate,,2066,Plymouth County,FI,0ba17df0-680b-4879-9c9d-a1cc6e13b254,42.1895024793984,-70.7236411924615
562,970 Rempel Burg,,Boston,,2152,Suffolk County,FI,0bab3101-9a8f-413e-b51b-ac305e1a6ce6,42.4071315216722,-71.0445147563646
563,543 Bernier Quay Suite 67,,Quincy,,2186,Norfolk County,FI,0bae16a6-4c74-430e-902b-222a45c64821,42.2106309082246,-71.0599935072285
564,1024 Kshlerin Divide,,Malden,,2155,Middlesex County,FI,0bb509da-c902-4142-93ea-baff6a8ca559,42.4159189697207,-71.0915872206182
565,648 Wisozk Passage Apt 86,,Grafton,,,Worcester County,FI,0bb5548b-9b32-4e34-9106-c982fd359938,42.2043105278383,-71.6864671438927
566,559 Kihn Club Suite 32,,Bedford,,1730,Middlesex County,FI,0bbcfda4-4945-4709-b9ce-90ce0aa8f4f9,42.5083958567148,-71.2883999404548
567,947 O'Reilly Bypass,,Fall River,,2720,Bristol County,FI,0bbf6a9f-1c26-49f8-8f31-e22536c080e9,41.6850213085449,-71.100701903074
568,285 Hayes Road,,Walpole,,,Norfolk County,FI,0bc3dcce-0232-439f-bf54-54e330eb6ae1,42.1697059966874,-71.2620093693117
569,256 Johnson Lane Unit 34,,Hatfield,,,Hampshire County,FI,0bc43217-21b7-415f-92a2-0fd2bedd0182,42.3752884261535,-72.6402296742523
570,1049 Mann Vista Apt 92,,Malden,,2155,Middlesex County,FI,0bd52fad-5286-4724-9341-ced18d4ce79e,42.3946106674026,-71.0777713264577
571,824 Hodkiewicz Branch Unit 21,,Natick,,,Middlesex County,FI,0bd726fc-8a60-4c52-99d4-1800254ad139,42.312266986881,-71.3351224105481
572,978 Hills Crossing,,Springfield,,1105,Hampden County,FI,0bde2bf1-13b5-4735-972a-a7f91a791af9,42.1401074208755,-72.6046566205931
573,394 Schmidt Mission Unit 76,,Revere,,,Suffolk County,FI,0be82a37-7437-482b-8c17-62bef243a48e,42.4661626085309,-70.9727211422798
574,564 Heidenreich Stravenue Unit 42,,Fall River,,2724,Bristol County,FI,0be8c1a4-45e2-41d7-85f1-94a7aeade0ee,41.7719436515929,-71.0727279859417
575,588 Hayes Wynd Unit 44,,Watertown,,2472,Middlesex County,FI,0bf06e89-c05a-43ee-b3d7-aa24f92b0d49,42.3715575799859,-71.2115755678638
576,912 Ritchie Mill Apt 75,,Cambridge,,,Middlesex County,FI,0bf15895-7e19-4f02-ba52-5702e6c666ce,42.4115165173995,-71.101165018791
577,970 Murphy Ramp Suite 31,,Springfield,,1020,Hampden County,FI,0bf52c98-e6f0-4657-b013-3468b736e204,42.0532564119236,-72.4976962260907
578,713 Durgan Quay,,Hopedale,,1747,Worcester County,FI,0bf94b02-3a58-4360-ba6a-4ed1d85728c2,42.0852901733559,-71.5776491362505
579,818 Cole Skyway,,Melrose,,2176,Middlesex County,FI,0c0452c3-4403-4133-80b4-2db0b2198f9b,42.4569920871424,-71.0735070855287
580,549 Mayert Ranch,,Natick,,,Middlesex County,FI,0c083b48-8b9c-4e75-8dfe-ce2ace2e29d3,42.3327103082798,-71.3718854032302
581,712 Terry Promenade,,Williamstown,,,Berkshire County,FI,0c098e1c-60ad-4e69-a6fb-b077af376a5c,42.7229410814535,-73.1892490021011
582,519 Heller Trace Suite 4,,Peabody,,,Essex County,FI,0c0d97f5-b154-4b2d-a192-989c15ded688,42.5678660181155,-71.0039326891795
583,498 Langosh Harbor Unit 6,,Dartmouth,,,Bristol County,FI,0c0f72cc-ab8f-429e-9732-ad25de8f6777,41.569531395162,-70.9888881390976
584,845 Bednar Fort Unit 7,,Haverhill,,1830,Essex County,FI,0c0f824f-8618-40f6-b773-f7d499885de5,42.7938550392617,-71.1424177155527
585,854 Reinger Road,,Hanover,,,Plymouth County,FI,0c1026e0-3844-409f-afdf-bae55c6b089f,42.139787338816,-70.9054365035169
586,340 Ruecker Trail Unit 22,,Yarmouth,,,Barnstable County,FI,0c1405bf-ea87-4747-8f32-c5a67ef74903,41.7195009811318,-70.2187172269659
587,501 Franecki Arcade Unit 77,,Belchertown,,1007,Hampshire County,FI,0c1bf89c-0d5d-43b0-b162-2f6fa4bbee9c,42.2526824184942,-72.4361246323224
588,227 Morar Plaza,,Boston,,2163,Suffolk County,FI,0c329678-5d6c-4f7f-88b0-eef412838e37,42.3590408586594,-71.1272055585805
589,732 Rice Burg Suite 11,,Wareham,,,Plymouth County,FI,0c39b186-2f72-42d4-9090-112a75222819,41.7631095451978,-70.7096739200003
590,1031 Kautzer Dam Apt 88,,Topsfield,,,Essex County,FI,0c428f20-5117-4493-bddf-8b3acf73ddc3,42.6547675063876,-70.9416545394743
591,355 Huels Esplanade Apt 75,,Mendon,,,Worcester County,FI,0c455dee-2e8a-442a-b86d-cb183276ed0a,42.1348582160001,-71.5311519495327
592,807 Hamill Terrace Unit 93,,Springfield,,1106,Hampden County,FI,0c47b07f-f1d6-4a38-97cd-682b561b3a86,42.1166611314238,-72.500754699548
593,1074 Maggio Terrace,,Lynn,,1904,Essex County,FI,0c4940e8-4334-4bb7-bf07-90ccac2fa4f7,42.4450834260072,-70.984389543187
594,927 Braun Port Suite 61,,Weymouth,,2188,Norfolk County,FI,0c4c9805-500c-4849-b919-c64d960c2d66,42.1930976535098,-70.970000809341
595,1006 Runolfsson Glen Suite 51,,Leominster,,1420,Worcester County,FI,0c4cb225-907d-453c-a87b-8100e79206b6,42.6323602145079,-71.8071327018557
596,763 Oberbrunner Rapid Suite 30,,Brockton,,2351,Plymouth County,FI,0c4fd5a6-b384-42d9-98ef-806db50db3d2,42.1475258915102,-70.998328106797
597,780 Moen Crossroad Unit 76,,Marshfield,,2050,Plymouth County,FI,0c5000a4-a139-4dff-b0db-7f4071d931ca,42.073995671451,-70.7383348047195
598,882 Christiansen Fork Unit 64,,Chicopee,,1022,Hampden County,FI,0c546a6e-8ab3-4705-a5cc-626e8b06ba94,42.221367341895,-72.5559573313112
599,486 Champlin Way,,New Bedford,,2743,Bristol County,FI,0c75d4a0-7f28-4064-a823-5b4bb7815706,41.6275855366135,-70.9752784083851
600,769 Johns Rapid Unit 56,,Quincy,,2169,Norfolk County,FI,0c873e3c-1580-48e7-a20e-e312c79dd711,42.2036159654658,-71.0760942850151
601,1018 Torphy Crossing,,Framingham,,,Middlesex County,FI,0c8ab8e4-460c-4e6f-95c1-ac7dad4b9cf3,42.2729212520895,-71.4750878350657
602,448 Muller Extension,,Middleborough,,,Plymouth County,FI,0c8b00d8-a372-4451-accb-77c5a62de349,41.8713867684032,-70.8932135078152
603,1005 D'Amore Village Apt 8,,Northampton,,,Hampshire County,FI,0c935b3d-9a2d-4076-863f-90a606f54bd6,42.385683726082,-72.7584037843412
604,514 Huel Run,,Lincoln,,,Middlesex County,FI,0c9694e5-4cf5-4c2f-9173-46b4ee454c55,42.443327077423,-71.2963754758488
605,895 Hilpert Esplanade Apt 29,,Winchester,,1890,Middlesex County,FI,0c97fff5-3f97-454a-8a41-b8704377b182,42.4661879127529,-71.1252594473811
606,1057 Kozey Route,,Boston,,2152,Suffolk County,FI,0cb46bf9-bc93-4baa-9779-ea57d5157348,42.3495855211833,-71.0910480750147
607,1019 Gaylord Junction Suite 88,,Winchester,,1890,Middlesex County,FI,0cb91fe7-1b7f-46c9-87b4-5cd519e44e13,42.4772401596182,-71.0943855982473
608,831 Walter Branch Unit 11,,Dover,,,Norfolk County,FI,0cbbcbe3-ac86-4cca-9bf2-9b7d60a61964,42.1890496294225,-71.3353509864463
609,1081 Torp Rue Unit 16,,Gardner,,1440,Worcester County,FI,0cc87dbc-9b82-4f64-932e-3bfbeb11ca97,42.6312764222278,-71.9422251253467
610,573 Farrell Track Unit 32,,Seekonk,,,Bristol County,FI,0cdfa409-fdd3-474c-ad14-6097b447a71f,41.848609188612,-71.2945238838561
611,416 Dietrich Harbor Suite 69,,Dennis,,2638,Barnstable County,FI,0cec8ab8-aea2-4b81-b768-ce0b37556306,41.6645462386386,-70.1546387330071
612,815 Marquardt Terrace,,Lawrence,,,Essex County,FI,0cf5384b-00e1-4dc5-bbcf-85cceb1c0998,42.6872150899338,-71.1543065037257
613,403 Christiansen Frontage road,,Somerville,,2140,Middlesex County,FI,0cf62ef7-3a16-40ff-9583-bbbbf9c4406e,42.4179094806852,-71.1140829587712
614,263 Leannon Path Apt 22,,Boston,,2121,Suffolk County,FI,0cf7a194-1239-4ece-9fa5-7f9bba9fcf78,42.3239262141539,-71.0953514239522
615,835 Bernhard Stravenue Suite 31,,Stoughton,,,Norfolk County,FI,0cfb22c3-5c3f-4fe0-999f-19096906b07f,42.1584235432101,-71.0932991205859
616,972 O'Conner Annex Suite 90,,Barnstable,,2632,Barnstable County,FI,0cfcda86-baa5-4500-badb-345e1a0b0529,41.6629756871182,-70.3276330577744
617,590 Lockman Street Unit 6,,Framingham,,1702,Middlesex County,FI,0cfeb327-ae93-4e9a-9246-c073b14307c2,42.2842111057432,-71.483062314196
618,171 Langworth Neck Apt 5,,Cambridge,,2140,Middlesex County,FI,0cff7fbb-9400-4ace-ad9e-2216c4e22def,42.4122795798024,-71.0602663138758
619,594 Towne Run,,Westford,,,Middlesex County,FI,0d06886f-adcf-4c6e-ac8a-00da5a2a2f5c,42.6235382972604,-71.4641393664964
620,719 Parker Highlands Apt 54,,Lexington,,2420,Middlesex County,FI,0d0b77f2-5b36-47b0-83b7-4822d8d043fa,42.4764804188984,-71.2526365672225
621,862 Daugherty Port,,Concord,,,Middlesex County,FI,0d0bd310-af83-4127-8caa-8b2a4951daca,42.4648698192303,-71.334660504732
622,273 Hirthe Mill Unit 43,,Sutton,,,Worcester County,FI,0d0d9729-0fb6-43a7-a82d-929db68b5e0e,42.1819799130059,-71.7604121883168
623,713 Smith Center,,Dudley,,,Worcester County,FI,0d10e760-e6a2-480b-a10b-5e2735b6e603,42.0823919280307,-71.9209102211889
624,194 McClure Glen,,Arlington,,,Middlesex County,FI,0d205687-07a0-4b6f-a7bd-d932f96de71c,42.3762502127292,-71.1710342608961
625,908 VonRueden Boulevard Apt 23,,Sandwich,,,Barnstable County,FI,0d2915ff-d513-4e94-b5dc-6b7f919d60d2,41.7573830287243,-70.4739960419014
626,535 Kunze Passage Unit 68,,Ipswich,,,Essex County,FI,0d2c96d2-41cf-45a1-9b27-a836d7452f38,42.7309544089985,-70.833268987641
627,666 Brakus Estate,,Southborough,,,Worcester County,FI,0d32039a-e004-4a54-bbcd-aad3b3af84fd,42.2864916675471,-71.568965351048
628,517 Baumbach Mill Apt 90,,Lowell,,1852,Middlesex County,FI,0d346785-7cf0-427a-b033-59cdc32a878e,42.6058379709835,-71.3210017340666
629,654 Kutch View Unit 39,,Framingham,,1701,Middlesex County,FI,0d40318b-ec86-4b27-b7f4-5b6403c06b29,42.2475469095054,-71.4713302501519
630,658 Runolfsson Throughway,,Saugus,,1906,Essex County,FI,0d448980-c59e-47bc-a7a9-868b9b22c638,42.4224358132326,-71.0506688147117
631,973 Cruickshank Rapid,,Sharon,,2067,Norfolk County,FI,0d51286b-5a67-4a7a-93c2-ae1bf2517404,42.0926105343642,-71.1957919796642
632,613 Greenfelder Crossroad,,Mansfield,,,Bristol County,FI,0d5a040b-fd31-4924-a0ce-6cc8912e359d,42.0415736975257,-71.210211505693
633,142 Jacobi Vista,,Gloucester,,,Essex County,FI,0d5a6ebb-be0a-4714-8e2a-516251571811,42.6587685907995,-70.6874560138541
634,1056 Glover Neck Apt 9,,Milton,,,Norfolk County,FI,0d5e7db6-3354-41c3-87a7-a17d2ce79c9a,42.2231635862667,-71.1038349803216
635,244 Willms Heights,,Boston,,2134,Suffolk County,FI,0d5f31dc-4357-4195-bc4d-9de3bb4136fa,42.3289409826712,-71.0860128823807
636,661 Hilll Track,,Auburn,,,Worcester County,FI,0d66ba40-709b-41e9-9838-2fbb85330891,42.2449034450507,-71.893273960503
637,189 Gleason Terrace Apt 8,,Weymouth,,,Norfolk County,FI,0d6b8cdf-5dc6-4cbc-b93e-9fc31637b474,42.1982650112899,-70.9463786282251
638,323 Emmerich Vale,,Plymouth,,,Plymouth County,FI,0d6d8966-dcb9-4279-8de0-07c27ac98107,41.84296611912,-70.6799560057598
639,913 West Wynd,,Easton,,,Bristol County,FI,0d716732-2ee2-4529-a718-d518a00f92b1,41.9913669331181,-71.0658283883546
640,1047 Cronin Arcade,,Westport,,,Bristol County,FI,0d756f02-8917-4794-9b09-fd9f66ac58d7,41.541114384767,-71.1038377423784
641,535 Thiel Mews,,Shrewsbury,,,Worcester County,FI,0d7992e7-7a62-4686-bbdc-13add1a99b76,42.2558638300101,-71.7294272605962
642,423 Reichert Bypass,,Natick,,,Middlesex County,FI,0d7c4829-e992-4506-9023-986ea8d64515,42.2635809434604,-71.3848367684546
643,935 Kub Avenue Suite 35,,Haverhill,,,Essex County,FI,0d86bddf-3e3b-4a5a-b779-6d8b5054abec,42.7936119039657,-71.0790510437692
644,1035 Funk Boulevard Apt 34,,Hingham,,,Plymouth County,FI,0d889516-8518-4690-97b1-0d6c78c23be8,42.2238062559945,-70.8418436141674
645,702 Abbott Neck Apt 90,,Seekonk,,,Bristol County,FI,0d892e59-758c-4232-9ef7-3f957b3b90f7,41.8390892407535,-71.3150408670599
646,799 Langosh Forge,,Sharon,,,Norfolk County,FI,0d8ab33b-e925-4b98-a778-955be7d802af,42.0767149930906,-71.2103341738519
647,558 Leuschke Terrace,,Mashpee,,,Barnstable County,FI,0d8e8dc7-830a-479d-acca-1f5eb7398596,41.6087726122145,-70.4729580499691
648,386 Strosin Green Apt 0,,Boston,,2151,Suffolk County,FI,0d932d5c-e488-433a-9757-a6ef10d0cd13,42.3426910313611,-71.1068305582106
649,450 Haley Path Unit 25,,Attleboro,,2861,Bristol County,FI,0d9926a3-ef9b-4756-9f65-4e29eae9b2d2,41.8516874391129,-71.3624401792399
650,968 Abbott Alley,,Newton,,2465,Middlesex County,FI,0d9aec96-8486-4254-a823-02a4b2d4b6f2,42.3387911534251,-71.2304727495307
651,577 King Avenue Suite 44,,Hamilton,,,Essex County,FI,0d9c0c36-27d0-47e8-9730-2cbf89f0bbc6,42.5779072354637,-70.902785261797
652,617 Reilly Skyway,,Easthampton,,1027,Hampshire County,FI,0dacd905-8204-4b66-be0a-29e7803ac917,42.2741556187348,-72.7054327206102
653,403 Feest Camp,,Acton,,,Middlesex County,FI,0db376a0-7d22-43a3-bc7b-05bc6a2f857f,42.4749543015449,-71.4334074763209
654,442 Douglas Terrace,,Boston,,2128,Suffolk County,FI,0dbaf088-fd49-477f-822c-9988acbb6544,42.3733198108557,-71.0585025705455
655,808 Barrows Manor,,Quincy,,2186,Norfolk County,FI,0dbc29d7-a430-4d4f-9b95-3853f591a562,42.3187017946783,-71.0434269991011
656,489 Lockman Road,,Billerica,,,Middlesex County,FI,0dc33da7-a854-43f6-b9a8-13a87752ce9b,42.5581830771337,-71.3034298722842
657,413 Morissette Route Apt 80,,Medford,,,Middlesex County,FI,0dc4b400-d8e1-4d71-a58a-c07190862c3f,42.3836099939349,-71.1037855734581
658,769 Jones Stravenue,,South Hadley,,,Hampshire County,FI,0dd0c0d5-0ace-4a49-8282-0405f1cebe55,42.2997805431093,-72.5617540616076
659,411 Abshire Underpass Suite 39,,Revere,,2151,Suffolk County,FI,0dd4726c-2673-4419-b2c4-c28d212241ce,42.4046535121838,-71.0087800158508
660,635 Jacobi Ranch Unit 40,,Savoy,,,Berkshire County,FI,0dda208f-ca8a-434e-87ca-3b30907320e4,42.5543189733048,-73.0064705894365
661,207 Von Rest Unit 51,,Brewster,,,Barnstable County,FI,0dde05a9-c85e-4e82-8eb9-6819cd346922,41.7579554947975,-70.0581756790918
662,685 Corwin Arcade,,Foxborough,,2035,Norfolk County,FI,0deb2a06-7f15-4187-8a13-8112e84fa506,42.0905136564918,-71.269753199628
663,1063 Emmerich Crossroad Unit 65,,Cambridge,,2142,Middlesex County,FI,0df4b623-e965-463a-81db-ccb6a892a2cf,42.3237732678559,-71.1846687628872
664,392 Wyman Ramp,,Hopkinton,,1748,Middlesex County,FI,0df4d598-1087-42c9-a8d5-83ea3d77f0c1,42.1908954686427,-71.5877585332201
665,592 Beatty Overpass Unit 11,,Boston,,2110,Suffolk County,FI,0e042d31-7176-4abd-8a27-080c73fe6e64,42.2946058121984,-71.0470495560129
666,655 Torphy Wynd,,Westborough,,,Worcester County,FI,0e0d5dd4-6c75-42d3-a7b6-3ab5a61415d4,42.2349897332927,-71.5781484187057
667,578 Parker Arcade,,East Brookfield,,,Worcester County,FI,0e0fe687-51fc-4608-a03a-180237a58bb2,42.1654080459628,-72.0661342263781
668,310 Considine Harbor Apt 68,,Concord,,,Middlesex County,FI,0e28e733-d1e2-4585-90c0-3e163b2fd255,42.4469839504731,-71.4006399843012
669,501 Tillman Divide,,Westborough,,,Worcester County,FI,0e29ed0c-5c52-46b3-b231-be7bf9c98e69,42.2185749279284,-71.6206837738149
670,342 Mann Gate,,Peabody,,1960,Essex County,FI,0e357b8f-5c3f-4f9a-aba0-338965bc1d7b,42.5694246121382,-70.9529112728842
671,851 O'Reilly Mill Unit 19,,New Bedford,,2743,Bristol County,FI,0e3bc4ec-0af8-4fe9-bc25-49a4f70055bb,41.6575925192532,-70.9010125504073
672,291 Graham Promenade Unit 6,,Springfield,,1104,Hampden County,FI,0e421699-36c5-42c2-96b3-35c111f23878,42.076656243446,-72.5721173776297
673,846 Von Vale Apt 47,,Methuen,,1841,Essex County,FI,0e42c9df-bca6-49bc-ac1f-1f39fadd03b8,42.7237719965028,-71.188027496646
674,873 Lowe Row Unit 94,,Montague,,,Franklin County,FI,0e48341d-3bd3-4420-a238-b47507a9a618,42.5088775200461,-72.5602682491563
675,1013 Franecki Bay,,Boxford,,1921,Essex County,FI,0e4bf7cd-fe22-4562-834c-a37d83c216e5,42.7208517866796,-70.9842782165105
676,463 Weissnat Underpass Suite 52,,Malden,,2155,Middlesex County,FI,0e50cd2c-a6ee-48bc-995a-2fd32f26ad7b,42.389926414016,-71.0920743180418
677,375 Rodriguez Fort,,Fitchburg,,1420,Worcester County,FI,0e5c63ff-34e3-49a4-b992-b3e3068e3735,42.5928800192433,-71.8103193483786
678,722 Jacobson Overpass,,Salem,,1970,Essex County,FI,0e70a2fd-ab1e-47f6-a804-2d2caee21c67,42.4670600371515,-70.866559128685
679,558 McGlynn Row Apt 43,,Auburn,,,Worcester County,FI,0e7bbc54-de9a-4977-8eb3-67012362f278,42.2036211109283,-71.8437463750402
680,517 Herzog Quay Unit 99,,Mashpee,,,Barnstable County,FI,0e7ddb19-c903-4772-a27e-7bf5868a822d,41.6183940577588,-70.5315791371516
681,1037 Gusikowski Dam Apt 64,,Scituate,,,Plymouth County,FI,0e7dec81-05ca-45ee-ad2e-3a3d2649abc8,42.2423662147158,-70.7519549631889
682,236 Kling Spur Apt 65,,Somerville,,2138,Middlesex County,FI,0e84da8e-2359-42ed-baa7-76dc24a5022d,42.3882852485383,-71.0503216933084
683,258 Gottlieb Track,,Woburn,,1801,Middlesex County,FI,0e92f447-a798-4844-89dc-a34083a6ecc1,42.5001308111811,-71.1268402693832
684,998 McKenzie Branch,,Brockton,,2302,Plymouth County,FI,0e97d750-9ae4-4cfb-b648-3431f1923738,42.0653362925562,-70.9999182541918
685,1057 Sauer Branch Unit 75,,Sudbury,,,Middlesex County,FI,0e9a15fc-9a02-437c-ae65-095a8ce1a349,42.4067015944649,-71.3819614321916
686,448 Prohaska Green,,Boston,,2111,Suffolk County,FI,0e9c584b-b1b7-4211-9ded-c4448a32cda0,42.416048416135,-71.0607494399059
687,183 Tremblay Route,,West Springfield,,1089,Hampden County,FI,0ea7dbdd-9023-4c5c-ab30-a6e5e69d5841,42.0952904157874,-72.6340869204502
688,634 Dickens Rue Suite 60,,Lynn,,,Essex County,FI,0ea8d2d2-4153-489d-b85c-90fe5a46efee,42.4363212527306,-71.0091992888398
689,925 Batz Trace,,Shelburne,,,Franklin County,FI,0ea9896a-0ffb-429f-8e5a-f07e32d1275c,42.6264246094942,-72.6357715903955
690,612 Davis Manor Unit 3,,Upton,,,Worcester County,FI,0ead6f44-6187-4fa6-b5b7-bfde187cc251,42.1746272100706,-71.5805306809938
691,978 Mante Wynd Suite 74,,Peabody,,1940,Essex County,FI,0eadc116-ca3f-47b8-b307-a4f226b83f16,42.5060560102523,-71.0376403716933
692,672 Pagac Trace Suite 52,,Boston,,2203,Suffolk County,FI,0ebadb7d-6162-484c-aff5-522b709ec6c0,42.2929155075512,-71.1275923652782
693,140 Baumbach Esplanade Apt 61,,Wilmington,,1887,Middlesex County,FI,0ec17986-c123-4769-a9f2-b08b673cad1a,42.5841419740251,-71.1386198190685
694,247 O'Keefe Throughway,,Beverly,,,Essex County,FI,0ec26bbd-f8c7-4223-bb9b-3669a780dbf0,42.5160043596101,-70.804401428217
695,883 Hudson Row,,Winchester,,,Middlesex County,FI,0ec3ac02-9f69-443e-9fc6-5f1b1566610e,42.4253360713927,-71.1827259912574
696,484 Goodwin Highlands,,Lenox,,,Berkshire County,FI,0ecda41e-bfef-4fe1-bf42-10b8af7d033b,42.397755917341,-73.2671683804197
697,283 Willms Spur,,Dudley,,,Worcester County,FI,0ed0c63c-2213-46ab-8ec6-a3faa1164094,42.0386123477918,-71.9050613478552
698,394 Little Run Unit 96,,Middleborough,,,Plymouth County,FI,0edd165c-2120-4955-875c-669589e89619,41.8350000865775,-70.886274063374
699,614 Mills Mall Unit 80,,Somerville,,2143,Middlesex County,FI,0edf6b94-4916-43f0-a4bf-fcaf8aabf739,42.3779750412262,-71.1125804722596
700,918 Gaylord Burg Suite 34,,Bedford,,1730,Middlesex County,FI,0ee0e46e-604f-40a1-964f-1d150af3d759,42.4695591834141,-71.2425073840219
701,558 Macejkovic Camp,,Stockbridge,,,Berkshire County,FI,0ee252b8-3c39-4355-b5da-75777b54056c,42.3015500817492,-73.3601419018735
702,798 Thompson Alley Unit 46,,Fairhaven,,,Bristol County,FI,0ee3fba9-f4a4-443a-9d55-e0381c55f8d8,41.6442607056361,-70.8392992908286
703,967 Thompson Bay Apt 30,,Beverly,,1915,Essex County,FI,0ef68ce3-e5b9-4b4f-b96a-d5e22536080f,42.5394226378064,-70.8525180007775
704,411 Welch Common Suite 71,,Chelsea,,,Suffolk County,FI,0f003fd8-4b0a-476d-938c-cdb45dfd2509,42.3502781641421,-71.0205022190923
705,484 Christiansen Throughway Unit 44,,Revere,,2151,Suffolk County,FI,0f02bad0-536b-444d-96ec-220f44ec3fa7,42.4165182901369,-70.9809877097359
706,1037 Lebsack Well,,Cambridge,,2138,Middlesex County,FI,0f040f70-0be7-401d-b5a6-24c249023b93,42.3805162741563,-71.1066321944691
707,787 Fay Rest,,Lynn,,,Essex County,FI,0f088054-2a39-4f89-9cbc-ee4b9ef1d561,42.4328997877166,-70.9445908504667
708,163 Streich Manor Unit 35,,Nantucket,,,Nantucket County,FI,0f095d61-0fb4-4297-9a61-2d1ac579757c,41.2424863668698,-70.123975787013
709,461 Zemlak Key,,Boston,,2163,Suffolk County,FI,0f15bddb-4478-4b4d-9d4b-9fc60e4b85d9,42.3192505463489,-71.1002250590346
710,1050 Rippin Center Unit 35,,Spencer,,1562,Worcester County,FI,0f18ef0a-44d7-4e2f-b510-bb3f271cb7f3,42.2353464845045,-72.0086774518815
711,972 Weissnat Lane,,Marshfield,,,Plymouth County,FI,0f19c7c8-cf1e-4f1f-9a6c-49f5df2c4697,42.0916547416854,-70.7402739496818
712,156 Fadel Lane,,Medford,,2155,Middlesex County,FI,0f1a5439-2308-4adf-b7eb-dbae0a756f37,42.466089779715,-71.1471968578353
713,1092 Nicolas Meadow Suite 74,,Bridgewater,,2324,Plymouth County,FI,0f1ce26e-cd63-4e98-9875-22f723e27e06,41.9674216743322,-70.9838847809155
714,608 Schumm Wynd,,Worcester,,,Worcester County,FI,0f266f90-0894-4b2e-bb73-5daa2ba2b6c5,42.275411832171,-71.8450112929174
715,128 Russel Rapid,,Sudbury,,,Middlesex County,FI,0f29a248-e734-47ff-88ff-b0b442703691,42.3512907581013,-71.4623925103301
716,747 Swaniawski Pathway Unit 52,,Westfield,,1086,Hampden County,FI,0f2f5029-602b-4d8d-a3d8-cced95df669a,42.0841329949212,-72.8323171458442
717,921 West Camp,,Barre,,,Worcester County,FI,0f319d77-d402-41fe-972a-778f9e2b3015,42.3808152649578,-72.0869107522363
718,250 Senger Stravenue Suite 35,,Boston,,2120,Suffolk County,FI,0f3cd067-6d99-4e30-a85d-d46172f66c64,42.3930182372256,-71.0612869544159
719,809 Lehner Lodge,,Templeton,,,Worcester County,FI,0f3d890f-b13f-4733-b2fa-edd6de61d56b,42.5292669067643,-72.0705171396817
720,188 Jerde Course,,Haverhill,,,Essex County,FI,0f43f05a-6f45-4907-816e-746b0eff36cd,42.7868336325464,-71.0153032812111
721,828 Collier Skyway,,Falmouth,,,Barnstable County,FI,0f4654e2-56a0-4df3-8e2f-f0835e8b7170,41.6091990735966,-70.6350166014976
722,288 Macejkovic Rue,,Pepperell,,,Middlesex County,FI,0f4cef3b-42de-4400-90a7-96a9f5f25a0a,42.6237725404516,-71.6300289768365
723,793 Mosciski Mall,,Falmouth,,,Barnstable County,FI,0f64e85c-0c19-4a67-9937-f0e22868bbf5,41.5590870483225,-70.6242775407932
724,713 Hartmann Drive,,New Bedford,,2743,Bristol County,FI,0f6a5b56-8558-4759-9589-e73371438983,41.5911321279272,-70.9290471401597
725,128 Bruen Plaza,,Brewster,,2631,Barnstable County,FI,0f6f944b-1752-4887-b34e-215e69f7d04a,41.7319081417762,-70.0330095643547
726,574 Ankunding Crossroad Unit 83,,Waltham,,2452,Middlesex County,FI,0f716326-e0c4-465c-a645-9f6fd9c83b29,42.3621503771937,-71.2625629797467
727,704 Schuppe Club Suite 79,,Duxbury,,,Plymouth County,FI,0f74ab06-422e-4765-bf36-11017ff16b0f,42.09193772033,-70.7519123287625
728,1095 Lind Trailer,,Framingham,,1701,Middlesex County,FI,0f798bdd-4391-43f0-9927-1fe90bdc8b23,42.2793143272595,-71.4263952033948
729,1017 O'Kon Quay,,Rockland,,,Plymouth County,FI,0f79c0e6-8319-4acf-ab59-1d3be86a36c5,42.0962819234561,-70.9132399846534
730,605 Spinka Esplanade,,Hudson,,,Middlesex County,FI,0f7ca997-b632-45dc-8a9e-8a9bb48b8567,42.367761649171,-71.5834265220353
731,826 Swaniawski Burg Apt 91,,Dudley,,,Worcester County,FI,0f7ee3ae-74e5-4563-8643-630adc2de77c,42.0914956474925,-71.9596969880588
732,341 Murphy Gateway Suite 56,,Boston,,2118,Suffolk County,FI,0f8065eb-2ea2-4a1f-a3d7-c43567f0d437,42.4282935436012,-70.9604208783953
733,388 Carroll Trafficway,,Taunton,,,Bristol County,FI,0f84ee74-1f28-4314-8009-8c91d62a9ee8,41.9291212472738,-71.0892530704927
734,293 Donnelly Lock,,Hudson,,,Middlesex County,FI,0f8503be-4572-4b0a-b269-de3ba8d25c80,42.3437026966124,-71.5114901914271
735,114 Zulauf Way,,Lowell,,1852,Middlesex County,FI,0f87ffff-3846-435e-909d-a595cecbfeb2,42.6763425610374,-71.3446300310883
736,781 Fahey Ramp,,Mashpee,,,Barnstable County,FI,0f8e1e1f-da90-4051-a62a-00f3f2638019,41.5712579080179,-70.4485985619243
737,657 Langosh Vista Apt 79,,Worcester,,1583,Worcester County,FI,0f8f34f1-add9-4411-82a2-974eb258d65e,42.2718591032426,-71.8446601750084
738,169 Beier Station,,Marlborough,,1752,Middlesex County,FI,0faf9610-47c7-496c-8b07-3918b3487ce9,42.3450172084218,-71.5860956879389
739,513 O'Keefe Avenue Unit 9,,Scituate,,,Plymouth County,FI,0fb3729b-ff96-43df-ae46-cf51c39a66af,42.1823605537928,-70.7722701920475
740,299 Thiel Neck,,Marlborough,,,Middlesex County,FI,0fba9ec4-195c-422f-bccf-ec0e94c47f4a,42.3746871307157,-71.5001071753346
741,902 Hagenes Center Apt 25,,Amesbury,,,Essex County,FI,0fbaf7b2-c24f-4c51-80de-d3aaf2a7734a,42.8981472391902,-70.9799454736861
742,242 Huel Extension Unit 32,,Hudson,,1749,Middlesex County,FI,0fd0290a-7f46-4327-9ecd-ab77cb572460,42.437638220772,-71.5893959351935
743,217 Stiedemann Plaza,,Newton,,2465,Middlesex County,FI,0fdac47b-260a-43cd-a415-dd235395f9ea,42.3497360944758,-71.1449296627754
744,676 Marks Bridge Unit 72,,North Andover,,,Essex County,FI,0fdc1817-8691-48d8-bcee-0cf41db254a0,42.7078974791456,-71.0597882367697
745,914 Bartoletti Overpass Unit 10,,Weymouth,,2190,Norfolk County,FI,0fe2bac4-99c9-4a49-9929-86b5f9857382,42.1926735481722,-70.9490860919285
746,563 Kuvalis Divide Unit 42,,Hamilton,,,Essex County,FI,0fe63a7b-d861-45f3-9504-50e29df83f3f,42.589135030704,-70.8455028607408
747,499 Jacobson Viaduct,,Becket,,,Berkshire County,FI,0fea320f-e276-4522-bd1e-809f21edf192,42.3090597125787,-73.1288910453441
748,559 Windler Center,,Merrimac,,,Essex County,FI,0ff251d5-4365-4ed7-8300-1f13a00d5316,42.8088311759669,-71.027693476495
749,882 Ward Bypass,,Falmouth,,2540,Barnstable County,FI,0ffa4400-cfb9-4e08-ace9-cc6e116a78c2,41.5444910754065,-70.6457940923336
750,594 Brekke Ferry Suite 75,,Fitchburg,,,Worcester County,FI,1001d4d3-fde6-4ad7-84da-b2503fd6b1cb,42.5910879431511,-71.8084243580888
751,859 Beahan Byway Unit 32,,Orleans,,,Barnstable County,FI,100b5478-9dc2-4499-a974-e902c79ab8fb,41.7207745763697,-69.985889933184
752,838 Blanda Pathway Unit 92,,Worcester,,1603,Worcester County,FI,100db58e-1834-4d2b-8c73-a9ba63c41dc2,42.3359784044879,-71.7991205766151
753,245 Kutch Ranch,,Attleboro,,2861,Bristol County,FI,1014c436-3d8d-4b5a-a358-f217ba171325,41.84030164336,-71.3151330960734
754,1017 Will Lock Suite 59,,Hingham,,,Plymouth County,FI,10272cee-7b99-4718-bb8a-b251119316f3,42.2134427734887,-70.9143997321519
755,802 Cruickshank Spur,,Boston,,2151,Suffolk County,FI,1027b788-46dc-4984-8190-3f693e5584a6,42.2899781740273,-71.0916999467839
756,836 Hilll Byway Unit 40,,Beverly,,,Essex County,FI,10296dbb-173a-4162-bf34-2b17b9f75b71,42.5597325384228,-70.8354620769333
757,798 Mayert Wall Apt 39,,Methuen,,1841,Essex County,FI,102e0b2b-97d6-4168-b33d-a12221cf300b,42.6720644417626,-71.2000674947449
758,350 Beer Dale,,Shutesbury,,,Franklin County,FI,10459351-bb3d-4f01-878d-032b70d55ce9,42.4550492244963,-72.3735492879673
759,469 White Row,,Weymouth,,2188,Norfolk County,FI,104db4d1-2b0c-43ca-972a-cffaa363fe71,42.165563103719,-70.993889805385
760,1046 Rau Drive,,Norwood,,2090,Norfolk County,FI,104e7c93-2232-49cb-acf8-4d8d57dff057,42.1810886894796,-71.1799292786544
761,1022 Hettinger Dam,,Lancaster,,,Worcester County,FI,10559f24-7d8f-431b-bc76-97071f1d309c,42.4975312122876,-71.6973682525298
762,266 Walker Neck,,Framingham,,,Middlesex County,FI,105c2175-d642-4182-b4d6-2e5e84f81150,42.315571250689,-71.4494605870249
763,737 Leannon Divide,,Boston,,2131,Suffolk County,FI,1060faee-3df4-4afa-8b66-3a267c13278d,42.3411812376653,-71.082787991889
764,238 Walker Route,,Haverhill,,1835,Essex County,FI,10645a79-c1ff-4135-87be-afbbb4dbc13b,42.8320514566465,-71.1673531612335
